[{
    "name": "Baltimore–Washington International Airport",
    "city": "Baltimore",
    "iata": "BWI",
    "latitude": "39.177404",
    "longitude": "-76.668392",
    "country": {
      "name": "United States",
      "iso": "US"
    },
    "state": {
      "name": "Maryland",
      "abbr": "MD"
    }
  },
  {
    "name": "Richmond International Airport",
    "city": "Richmond",
    "iata": "RIC",
    "latitude": "37.506580",
    "longitude": "-77.320811",
    "country": {
      "name": "United States",
      "iso": "US"
    },
    "state": {
      "name": "Virginia",
      "abbr": "VA"
    }
  },
  {
    "name": "Chicago Rockford International Airport ",
    "city": "Rockford",
    "iata": "RFD",
    "latitude": "42.196299",
    "longitude": "-89.098623",
    "country": {
      "name": "United States",
      "iso": "US"
    },
    "state": {
      "name": "Illinois",
      "abbr": "IL"
    }
  },
  {
    "name": "Raleigh-Durham International Airport",
    "city": "Morrisville",
    "iata": "RDU",
    "latitude": "35.880079",
    "longitude": "-78.787996",
    "country": {
      "name": "United States",
      "iso": "US"
    },
    "state": {
      "name": "North Carolina",
      "abbr": "NC"
    }
  },
  {
    "name": "Bozeman Yellowstone International Airport",
    "city": "Bozeman",
    "iata": "BZN",
    "latitude": "45.777383",
    "longitude": "-111.160372",
    "country": {
      "name": "United States",
      "iso": "US"
    },
    "state": {
      "name": "Montana",
      "abbr": "MT"
    }
  },
  {
    "name": "Columbia Metropolitan Airport",
    "city": "West Columbia",
    "iata": "CAE",
    "latitude": "33.941917",
    "longitude": "-81.122002",
    "country": {
      "name": "United States",
      "iso": "US"
    },
    "state": {
      "name": "South Carolina",
      "abbr": "SC"
    }
  },
  {
    "name": "Portland International Jetport",
    "city": "Portland",
    "iata": "PWM",
    "latitude": "43.646479",
    "longitude": "-70.309697",
    "country": {
      "name": "United States",
      "iso": "US"
    },
    "state": {
      "name": "Maine",
      "abbr": "ME"
    }
  },
  {
    "name": "Chattanooga Metropolitan Airport ",
    "city": "Chattanooga",
    "iata": "CHA",
    "latitude": "35.035817",
    "longitude": "-85.201745",
    "country": {
      "name": "United States",
      "iso": "US"
    },
    "state": {
      "name": "Tennessee",
      "abbr": "TN"
    }
  },
  {
    "name": "Charleston International Airport",
    "city": "Charleston",
    "iata": "CHS",
    "latitude": "32.894268",
    "longitude": "-80.038159",
    "country": {
      "name": "United States",
      "iso": "US"
    },
    "state": {
      "name": "South Carolina",
      "abbr": "SC"
    }
  },
  {
    "name": "The Eastern Iowa Airport",
    "city": "Cedar Rapids",
    "iata": "CID",
    "latitude": "41.886386",
    "longitude": "-91.706975",
    "country": {
      "name": "United States",
      "iso": "US"
    },
    "state": {
      "name": "Iowa",
      "abbr": "IA"
    }
  },
  {
    "name": "Reno-Tahoe International Airport",
    "city": "Reno",
    "iata": "RNO",
    "latitude": "39.499591",
    "longitude": "-119.768095",
    "country": {
      "name": "United States",
      "iso": "US"
    },
    "state": {
      "name": "Nevada",
      "abbr": "NV"
    }
  },
  {
    "name": "Roanoke Regional Airport ",
    "city": "Roanoke",
    "iata": "ROA",
    "latitude": "37.320231",
    "longitude": "-79.970172",
    "country": {
      "name": "United States",
      "iso": "US"
    },
    "state": {
      "name": "Virginia",
      "abbr": "VA"
    }
  },
  {
    "name": "San Antonio International Airport",
    "city": "San Antonio",
    "iata": "SAT",
    "latitude": "29.531197",
    "longitude": "-98.468348",
    "country": {
      "name": "United States",
      "iso": "US"
    },
    "state": {
      "name": "Texas",
      "abbr": "TX"
    }
  },
  {
    "name": "Brownsville/South Padre Island International Airport",
    "city": "Brownsville",
    "iata": "BRO",
    "latitude": "25.906440",
    "longitude": "-97.431818",
    "country": {
      "name": "United States",
      "iso": "US"
    },
    "state": {
      "name": "Texas",
      "abbr": "TX"
    }
  },
  {
    "name": "San Diego International Airport",
    "city": "San Diego",
    "iata": "SAN",
    "latitude": "32.733801",
    "longitude": "-117.193304",
    "country": {
      "name": "United States",
      "iso": "US"
    },
    "state": {
      "name": "California",
      "abbr": "CA"
    }
  },
  {
    "name": "Baton Rouge Metropolitan Airport ",
    "city": "Baton Rouge",
    "iata": "BTR",
    "latitude": "30.532360",
    "longitude": "-91.151461",
    "country": {
      "name": "United States",
      "iso": "US"
    },
    "state": {
      "name": "Louisiana",
      "abbr": "LA"
    }
  },
  {
    "name": "Burlington International Airport",
    "city": "Burlington",
    "iata": "BTV",
    "latitude": "44.470694",
    "longitude": "-73.151604",
    "country": {
      "name": "United States",
      "iso": "US"
    },
    "state": {
      "name": "Vermont",
      "abbr": "VT"
    }
  },
  {
    "name": "Buffalo Niagara International Airport",
    "city": "Buffalo",
    "iata": "BUF",
    "latitude": "42.939706",
    "longitude": "-78.729507",
    "country": {
      "name": "United States",
      "iso": "US"
    },
    "state": {
      "name": "New York",
      "abbr": "NY"
    }
  },
  {
    "name": "Southwest Florida International Airport",
    "city": "Fort Myers",
    "iata": "RSW",
    "latitude": "26.533705",
    "longitude": "-81.755308",
    "country": {
      "name": "United States",
      "iso": "US"
    },
    "state": {
      "name": "Florida",
      "abbr": "FL"
    }
  },
  {
    "name": "Rochester International Airport",
    "city": "Rochester",
    "iata": "RST",
    "latitude": "43.910273",
    "longitude": "-92.490398",
    "country": {
      "name": "United States",
      "iso": "US"
    },
    "state": {
      "name": "Minnesota",
      "abbr": "MN"
    }
  },
  {
    "name": "Roswell International Air Center",
    "city": "Roswell",
    "iata": "ROW",
    "latitude": "33.299341",
    "longitude": "-104.524746",
    "country": {
      "name": "United States",
      "iso": "US"
    },
    "state": {
      "name": "New Mexico",
      "abbr": "NM"
    }
  },
  {
    "name": "Greater Rochester International Airport",
    "city": "Rochester",
    "iata": "ROC",
    "latitude": "43.122523",
    "longitude": "-77.666572",
    "country": {
      "name": "United States",
      "iso": "US"
    },
    "state": {
      "name": "New York",
      "abbr": "NY"
    }
  },
  {
    "name": "Chippewa County International Airport",
    "city": "Sault Ste Marie",
    "iata": "CIU",
    "latitude": "46.257754",
    "longitude": "-84.474331",
    "country": {
      "name": "United States",
      "iso": "US"
    },
    "state": {
      "name": "Michigan",
      "abbr": "MI"
    }
  },
  {
    "name": "Palm Springs International Airport",
    "city": "Palm Springs",
    "iata": "PSP",
    "latitude": "33.830319",
    "longitude": "-116.507047",
    "country": {
      "name": "United States",
      "iso": "US"
    },
    "state": {
      "name": "California",
      "abbr": "CA"
    }
  },
  {
    "name": "Pittsburgh International Airport",
    "city": "Findlay",
    "iata": "PIT",
    "latitude": "40.495772",
    "longitude": "-80.241311",
    "country": {
      "name": "United States",
      "iso": "US"
    },
    "state": {
      "name": "Pennsylvania",
      "abbr": "PA"
    }
  },
  {
    "name": "Daytona Beach International Airport",
    "city": "Daytona Beach",
    "iata": "DAB",
    "latitude": "29.179545",
    "longitude": "-81.056146",
    "country": {
      "name": "United States",
      "iso": "US"
    },
    "state": {
      "name": "Florida",
      "abbr": "FL"
    }
  },
  {
    "name": "Dallas Love Field",
    "city": "Dallas",
    "iata": "DAL",
    "latitude": "32.848103",
    "longitude": "-96.851206",
    "country": {
      "name": "United States",
      "iso": "US"
    },
    "state": {
      "name": "Texas",
      "abbr": "TX"
    }
  },
  {
    "name": "James M. Cox International Airport",
    "city": "Dayton",
    "iata": "DAY",
    "latitude": "39.902524",
    "longitude": "-84.221772",
    "country": {
      "name": "United States",
      "iso": "US"
    },
    "state": {
      "name": "Ohio",
      "abbr": "OH"
    }
  },
  {
    "name": "Dubuque Regional Airport",
    "city": "Dubuque",
    "iata": "DBQ",
    "latitude": "42.406307",
    "longitude": "-90.705033",
    "country": {
      "name": "United States",
      "iso": "US"
    },
    "state": {
      "name": "Iowa",
      "abbr": "IA"
    }
  },
  {
    "name": "Ronald Reagan Washington National Airport",
    "city": "Arlington County",
    "iata": "DCA",
    "latitude": "38.851242",
    "longitude": "-77.040232",
    "country": {
      "name": "United States",
      "iso": "US"
    },
    "state": {
      "name": "District of Columbia",
      "abbr": "DC"
    }
  },
  {
    "name": "St. Pete–Clearwater International Airport",
    "city": "Pinellas County",
    "iata": "PIE",
    "latitude": "27.906774",
    "longitude": "-82.691715",
    "country": {
      "name": "United States",
      "iso": "US"
    },
    "state": {
      "name": "Florida",
      "abbr": "FL"
    }
  },
  {
    "name": "Denver International Airport ",
    "city": "Denver",
    "iata": "DEN",
    "latitude": "39.856096",
    "longitude": "-104.673738",
    "country": {
      "name": "United States",
      "iso": "US"
    },
    "state": {
      "name": "Colorado",
      "abbr": "CO"
    }
  },
  {
    "name": "Coleman A. Young International Airport",
    "city": "Detroit",
    "iata": "DET",
    "latitude": "42.409098",
    "longitude": "-83.003561",
    "country": {
      "name": "United States",
      "iso": "US"
    },
    "state": {
      "name": "Michigan",
      "abbr": "MI"
    }
  },
  {
    "name": "Chennault International Airport",
    "city": "Lake Charles",
    "iata": "CWF",
    "latitude": "30.210457",
    "longitude": "-93.145073",
    "country": {
      "name": "United States",
      "iso": "US"
    },
    "state": {
      "name": "Louisiana",
      "abbr": "LA"
    }
  },
  {
    "name": "Cincinnati/Northern Kentucky International Airport",
    "city": "Hebron",
    "iata": "CVG",
    "latitude": "39.053275",
    "longitude": "-84.663017",
    "country": {
      "name": "United States",
      "iso": "US"
    },
    "state": {
      "name": "Kentucky",
      "abbr": "KY"
    }
  },
  {
    "name": "Yeager Airport",
    "city": "Charleston",
    "iata": "CRW",
    "latitude": "38.370485",
    "longitude": "-81.596705",
    "country": {
      "name": "United States",
      "iso": "US"
    },
    "state": {
      "name": "West Virginia",
      "abbr": "WV"
    }
  },
  {
    "name": "Portsmouth International Airport at Pease",
    "city": "Portsmouth",
    "iata": "PSM",
    "latitude": "43.080156",
    "longitude": "-70.822991",
    "country": {
      "name": "United States",
      "iso": "US"
    },
    "state": {
      "name": "New Hampshire",
      "abbr": "NH"
    }
  },
  {
    "name": "Cleveland Hopkins International Airport",
    "city": "Cleveland",
    "iata": "CLE",
    "latitude": "41.412434",
    "longitude": "-81.847992",
    "country": {
      "name": "United States",
      "iso": "US"
    },
    "state": {
      "name": "Ohio",
      "abbr": "OH"
    }
  },
  {
    "name": "William R. Fairchild International Airport",
    "city": "Port Angeles",
    "iata": "CLM",
    "latitude": "48.121883",
    "longitude": "-123.495110",
    "country": {
      "name": "United States",
      "iso": "US"
    },
    "state": {
      "name": "Washington",
      "abbr": "WA"
    }
  },
  {
    "name": "Charlotte Douglas International Airport",
    "city": "Charlotte",
    "iata": "CLT",
    "latitude": "35.214403",
    "longitude": "-80.947315",
    "country": {
      "name": "United States",
      "iso": "US"
    },
    "state": {
      "name": "North Carolina",
      "abbr": "NC"
    }
  },
  {
    "name": "Port Columbus International Airport",
    "city": "Columbus",
    "iata": "CMH",
    "latitude": "39.999940",
    "longitude": "-82.887177",
    "country": {
      "name": "United States",
      "iso": "US"
    },
    "state": {
      "name": "Ohio",
      "abbr": "OH"
    }
  },
  {
    "name": "Colorado Springs Airport",
    "city": "Colorado Springs",
    "iata": "COS",
    "latitude": "38.801712",
    "longitude": "-104.702604",
    "country": {
      "name": "United States",
      "iso": "US"
    },
    "state": {
      "name": "Colorado",
      "abbr": "CO"
    }
  },
  {
    "name": "Pensacola International  Airport",
    "city": "Pensacola",
    "iata": "PNS",
    "latitude": "30.473816",
    "longitude": "-87.186705",
    "country": {
      "name": "United States",
      "iso": "US"
    },
    "state": {
      "name": "Florida",
      "abbr": "FL"
    }
  },
  {
    "name": "Casper-Natrona County International Airport",
    "city": "Casper",
    "iata": "CPR",
    "latitude": "42.898890",
    "longitude": "-106.467863",
    "country": {
      "name": "United States",
      "iso": "US"
    },
    "state": {
      "name": "Wyoming",
      "abbr": "WY"
    }
  },
  {
    "name": "Corpus Christi International Airport",
    "city": "Corpus Christi",
    "iata": "CRP",
    "latitude": "27.772424",
    "longitude": "-97.502183",
    "country": {
      "name": "United States",
      "iso": "US"
    },
    "state": {
      "name": "Texas",
      "abbr": "TX"
    }
  },
  {
    "name": "Dallas-Fort Worth International Airport",
    "city": "Dallas and Fort Worth",
    "iata": "DFW",
    "latitude": "32.899809",
    "longitude": "-97.040335",
    "country": {
      "name": "United States",
      "iso": "US"
    },
    "state": {
      "name": "Texas",
      "abbr": "TX"
    }
  },
  {
    "name": "Rick Husband Amarillo International Airport",
    "city": "Amarillo",
    "iata": "AMA",
    "latitude": "35.220707",
    "longitude": "-101.707265",
    "country": {
      "name": "United States",
      "iso": "US"
    },
    "state": {
      "name": "Texas",
      "abbr": "TX"
    }
  },
  {
    "name": "Lambert-Saint Louis International Airport",
    "city": "St. Louis",
    "iata": "STL",
    "latitude": "38.743133",
    "longitude": "-90.365095",
    "country": {
      "name": "United States",
      "iso": "US"
    },
    "state": {
      "name": "Missouri",
      "abbr": "MO"
    }
  },
  {
    "name": "Austin-Bergstrom International Airport",
    "city": "Austin",
    "iata": "AUS",
    "latitude": "30.197429",
    "longitude": "-97.666306",
    "country": {
      "name": "United States",
      "iso": "US"
    },
    "state": {
      "name": "Texas",
      "abbr": "TX"
    }
  },
  {
    "name": "Asheville Regional Airport",
    "city": "Fletcher",
    "iata": "AVL",
    "latitude": "35.435830",
    "longitude": "-82.537653",
    "country": {
      "name": "United States",
      "iso": "US"
    },
    "state": {
      "name": "North Carolina",
      "abbr": "NC"
    }
  },
  {
    "name": "Sarasota-Bradenton International Airport",
    "city": "Sarasota",
    "iata": "SRQ",
    "latitude": "27.395444",
    "longitude": "-82.554389",
    "country": {
      "name": "United States",
      "iso": "US"
    },
    "state": {
      "name": "Florida",
      "abbr": "FL"
    }
  },
  {
    "name": "Wilkes-Barre/Scranton International Airport",
    "city": "Avoca",
    "iata": "AVP",
    "latitude": "41.336246",
    "longitude": "-75.731149",
    "country": {
      "name": "United States",
      "iso": "US"
    },
    "state": {
      "name": "Pennsylvania",
      "abbr": "PA"
    }
  },
  {
    "name": " Wichita Falls Municipal Airport",
    "city": "Wichita Falls",
    "iata": "SPS",
    "latitude": "33.591215",
    "longitude": "-98.622086",
    "country": {
      "name": "United States",
      "iso": "US"
    },
    "state": {
      "name": "Texas",
      "abbr": "TX"
    }
  },
  {
    "name": "Abraham Lincoln Capital Airport",
    "city": "Springfield",
    "iata": "SPI",
    "latitude": "39.843889",
    "longitude": "-89.677778",
    "country": {
      "name": "United States",
      "iso": "US"
    },
    "state": {
      "name": "Illinois",
      "abbr": "IL"
    }
  },
  {
    "name": "John Wayne Airport ",
    "city": "Santa Ana",
    "iata": "SNA",
    "latitude": "33.678250",
    "longitude": "-117.861970",
    "country": {
      "name": "United States",
      "iso": "US"
    },
    "state": {
      "name": "California",
      "abbr": "CA"
    }
  },
  {
    "name": "Sacramento International Airport",
    "city": "Sacramento",
    "iata": "SMF",
    "latitude": "38.695085",
    "longitude": "-121.590065",
    "country": {
      "name": "United States",
      "iso": "US"
    },
    "state": {
      "name": "California",
      "abbr": "CA"
    }
  },
  {
    "name": "Hartsfield-Jackson Atlanta International Airport",
    "city": "Atlanta",
    "iata": "ATL",
    "latitude": "33.640728",
    "longitude": "-84.427700",
    "country": {
      "name": "United States",
      "iso": "US"
    },
    "state": {
      "name": "Georgia",
      "abbr": "GA"
    }
  },
  {
    "name": "Watertown International Airport",
    "city": "Watertown",
    "iata": "ART",
    "latitude": "43.991667",
    "longitude": "-76.021657",
    "country": {
      "name": "United States",
      "iso": "US"
    },
    "state": {
      "name": "New York",
      "abbr": "NY"
    }
  },
  {
    "name": "Sioux Gateway Airport ",
    "city": "Sioux",
    "iata": "SUX",
    "latitude": "42.402500",
    "longitude": "-96.384167",
    "country": {
      "name": "United States",
      "iso": "US"
    },
    "state": {
      "name": "Iowa",
      "abbr": "IA"
    }
  },
  {
    "name": "McGhee Tyson Airport",
    "city": "Knoxville",
    "iata": "TYS",
    "latitude": "35.810833",
    "longitude": "-83.993889",
    "country": {
      "name": "United States",
      "iso": "US"
    },
    "state": {
      "name": "Tennessee",
      "abbr": "TN"
    }
  },
  {
    "name": "Tucson International Airport",
    "city": "Tucson",
    "iata": "TUS",
    "latitude": "32.114510",
    "longitude": "-110.939227",
    "country": {
      "name": "United States",
      "iso": "US"
    },
    "state": {
      "name": "Arizona",
      "abbr": "AZ"
    }
  },
  {
    "name": "Tulsa International Airport",
    "city": "Tulsa",
    "iata": "TUL",
    "latitude": "36.198778",
    "longitude": "-95.883866",
    "country": {
      "name": "United States",
      "iso": "US"
    },
    "state": {
      "name": "Oklahoma",
      "abbr": "OK"
    }
  },
  {
    "name": "Tri-Cities Regional Airport",
    "city": "Blountville",
    "iata": "TRI",
    "latitude": "36.481095",
    "longitude": "-82.407858",
    "country": {
      "name": "United States",
      "iso": "US"
    },
    "state": {
      "name": "Tennessee",
      "abbr": "TN"
    }
  },
  {
    "name": "Tampa International Airport",
    "city": "Tampa",
    "iata": "TPA",
    "latitude": "27.983478",
    "longitude": "-82.537078",
    "country": {
      "name": "United States",
      "iso": "US"
    },
    "state": {
      "name": "Florida",
      "abbr": "FL"
    }
  },
  {
    "name": "Toledo Express Airport",
    "city": "Swanton",
    "iata": "TOL",
    "latitude": "41.592390",
    "longitude": "-83.806018",
    "country": {
      "name": "United States",
      "iso": "US"
    },
    "state": {
      "name": "Ohio",
      "abbr": "OH"
    }
  },
  {
    "name": "Tallahassee International Airport",
    "city": "Tallahassee",
    "iata": "TLH",
    "latitude": "30.395273",
    "longitude": "-84.345045",
    "country": {
      "name": "United States",
      "iso": "US"
    },
    "state": {
      "name": "Florida",
      "abbr": "FL"
    }
  },
  {
    "name": "Syracuse Hancock International Airport",
    "city": "Syracuse",
    "iata": "SYR",
    "latitude": "43.113930",
    "longitude": "-76.110189",
    "country": {
      "name": "United States",
      "iso": "US"
    },
    "state": {
      "name": "New York",
      "abbr": "NY"
    }
  },
  {
    "name": "Stewart International Airport",
    "city": "Newburgh",
    "iata": "SWF",
    "latitude": "41.498563",
    "longitude": "-74.100439",
    "country": {
      "name": "United States",
      "iso": "US"
    },
    "state": {
      "name": "New York",
      "abbr": "NY"
    }
  },
  {
    "name": "Kalamazoo/Battle Creek International Airport",
    "city": "Kalamazoo",
    "iata": "AZO",
    "latitude": "42.233210",
    "longitude": "-85.549407",
    "country": {
      "name": "United States",
      "iso": "US"
    },
    "state": {
      "name": "Michigan",
      "abbr": "MI"
    }
  },
  {
    "name": "Beale Air Force Base",
    "city": "Marysville",
    "iata": "BAB",
    "latitude": "39.111504",
    "longitude": "-121.359881",
    "country": {
      "name": "United States",
      "iso": "US"
    },
    "state": {
      "name": "California",
      "abbr": "CA"
    }
  },
  {
    "name": "Seattle-Tacoma International Airport",
    "city": "Seattle",
    "iata": "SEA",
    "latitude": "47.450250",
    "longitude": "-122.308817",
    "country": {
      "name": "United States",
      "iso": "US"
    },
    "state": {
      "name": "Washington",
      "abbr": "WA"
    }
  },
  {
    "name": "Louisville International Airport ",
    "city": "Louisville",
    "iata": "SDF",
    "latitude": "38.175662",
    "longitude": "-85.736923",
    "country": {
      "name": "United States",
      "iso": "US"
    },
    "state": {
      "name": "Kentucky",
      "abbr": "KY"
    }
  },
  {
    "name": "Bellingham International Airport",
    "city": "Bellingham",
    "iata": "BLI",
    "latitude": "48.795653",
    "longitude": "-122.533073",
    "country": {
      "name": "United States",
      "iso": "US"
    },
    "state": {
      "name": "Washington",
      "abbr": "WA"
    }
  },
  {
    "name": "Greater Rochester International Airport",
    "city": " Rochester",
    "iata": "BMG",
    "latitude": "39.147834",
    "longitude": "-86.614569",
    "country": {
      "name": "United States",
      "iso": "US"
    },
    "state": {
      "name": "New York",
      "abbr": "NY"
    }
  },
  {
    "name": "Central Illinois Regional Airport",
    "city": "Bloomington",
    "iata": "BMI",
    "latitude": "40.480956",
    "longitude": "-88.912695",
    "country": {
      "name": "United States",
      "iso": "US"
    },
    "state": {
      "name": "Illinois",
      "abbr": "IL"
    }
  },
  {
    "name": "South Bend International Airport",
    "city": "South Bend",
    "iata": "SBN",
    "latitude": "41.706954",
    "longitude": "-86.322464",
    "country": {
      "name": "United States",
      "iso": "US"
    },
    "state": {
      "name": "Indiana",
      "abbr": "IN"
    }
  },
  {
    "name": "Nashville International Airport",
    "city": "Nashville",
    "iata": "BNA",
    "latitude": "36.126317",
    "longitude": "-86.677371",
    "country": {
      "name": "United States",
      "iso": "US"
    },
    "state": {
      "name": "Tennessee",
      "abbr": "TN"
    }
  },
  {
    "name": "Boise Air Terminal Airport",
    "city": "Boise",
    "iata": "BOI",
    "latitude": "43.565823",
    "longitude": "-116.222316",
    "country": {
      "name": "United States",
      "iso": "US"
    },
    "state": {
      "name": "Idaho",
      "abbr": "ID"
    }
  },
  {
    "name": "Logan International Airport",
    "city": "Boston",
    "iata": "BOS",
    "latitude": "42.365613",
    "longitude": "-71.009560",
    "country": {
      "name": "United States",
      "iso": "US"
    },
    "state": {
      "name": "Massachusetts",
      "abbr": "MA"
    }
  },
  {
    "name": "Orlando Sanford International Airport",
    "city": "Sanford",
    "iata": "SFB",
    "latitude": "28.775484",
    "longitude": "-81.243253",
    "country": {
      "name": "United States",
      "iso": "US"
    },
    "state": {
      "name": "Florida",
      "abbr": "FL"
    }
  },
  {
    "name": "Billings Logan International Airport",
    "city": "Billings",
    "iata": "BIL",
    "latitude": "45.805759",
    "longitude": "-108.545470",
    "country": {
      "name": "United States",
      "iso": "US"
    },
    "state": {
      "name": "Montana",
      "abbr": "MT"
    }
  },
  {
    "name": "Birmingham-Shuttlesworth International Airport",
    "city": "Birmingham",
    "iata": "BHM",
    "latitude": "33.562427",
    "longitude": "-86.754126",
    "country": {
      "name": "United States",
      "iso": "US"
    },
    "state": {
      "name": "Alabama",
      "abbr": "AL"
    }
  },
  {
    "name": "Barksdale Air Force Base",
    "city": "Bossier City",
    "iata": "BAD",
    "latitude": "32.501860",
    "longitude": "-93.657142",
    "country": {
      "name": "United States",
      "iso": "US"
    },
    "state": {
      "name": "Louisiana",
      "abbr": "LA"
    }
  },
  {
    "name": "Bradley International Airport",
    "city": "Windsor Locks",
    "iata": "BDL",
    "latitude": "41.938874",
    "longitude": "-72.686031",
    "country": {
      "name": "United States",
      "iso": "US"
    },
    "state": {
      "name": "Connecticut",
      "abbr": "CT"
    }
  },
  {
    "name": "Salt Lake City International Airport",
    "city": "Salt Lake City",
    "iata": "SLC",
    "latitude": "40.789940",
    "longitude": "-111.979071",
    "country": {
      "name": "United States",
      "iso": "US"
    },
    "state": {
      "name": "Utah",
      "abbr": "UT"
    }
  },
  {
    "name": "Norman Y. Mineta San José International Airport",
    "city": "San Jose",
    "iata": "SJC",
    "latitude": "37.363947",
    "longitude": "-121.928938",
    "country": {
      "name": "United States",
      "iso": "US"
    },
    "state": {
      "name": "California",
      "abbr": "CA"
    }
  },
  {
    "name": "Shreveport Regional Airport",
    "city": "Shreveport",
    "iata": "SHV",
    "latitude": "32.454546",
    "longitude": "-93.828496",
    "country": {
      "name": "United States",
      "iso": "US"
    },
    "state": {
      "name": "Louisiana",
      "abbr": "LA"
    }
  },
  {
    "name": "King County International Airport",
    "city": "Seattle",
    "iata": "BFI",
    "latitude": "47.536667",
    "longitude": "-122.303723",
    "country": {
      "name": "United States",
      "iso": "US"
    },
    "state": {
      "name": "Washington",
      "abbr": "WA"
    }
  },
  {
    "name": "Springfield-Branson National Airport",
    "city": "Springfield",
    "iata": "SGF",
    "latitude": "37.238077",
    "longitude": "-93.397096",
    "country": {
      "name": "United States",
      "iso": "US"
    },
    "state": {
      "name": "Missouri",
      "abbr": "MO"
    }
  },
  {
    "name": "Bangor International Airport",
    "city": "Bangor",
    "iata": "BGR",
    "latitude": "44.807975",
    "longitude": "-68.816683",
    "country": {
      "name": "United States",
      "iso": "US"
    },
    "state": {
      "name": "Maine",
      "abbr": "ME"
    }
  },
  {
    "name": "San Francisco International Airport",
    "city": "San Francisco",
    "iata": "SFO",
    "latitude": "37.621313",
    "longitude": "-122.378955",
    "country": {
      "name": "United States",
      "iso": "US"
    },
    "state": {
      "name": "California",
      "abbr": "CA"
    }
  },
  {
    "name": "Savannah/Hilton Head International Airport",
    "city": "Savannah",
    "iata": "SAV",
    "latitude": "32.129427",
    "longitude": "-81.201852",
    "country": {
      "name": "United States",
      "iso": "US"
    },
    "state": {
      "name": "Georgia",
      "abbr": "GA"
    }
  },
  {
    "name": "Duluth International Airport",
    "city": "Duluth",
    "iata": "DLH",
    "latitude": "46.838651",
    "longitude": "-92.180029",
    "country": {
      "name": "United States",
      "iso": "US"
    },
    "state": {
      "name": "Minnesota",
      "abbr": "MN"
    }
  },
  {
    "name": "Orlando Melbourne International Airport",
    "city": "Melbourne",
    "iata": "MLB",
    "latitude": "28.097989",
    "longitude": "-80.631248",
    "country": {
      "name": "United States",
      "iso": "US"
    },
    "state": {
      "name": "Florida",
      "abbr": "FL"
    }
  },
  {
    "name": "Rogue Valley International-Medford Airport",
    "city": "Medford",
    "iata": "MFR",
    "latitude": "42.368593",
    "longitude": "-122.874002",
    "country": {
      "name": "United States",
      "iso": "US"
    },
    "state": {
      "name": "Oregon",
      "abbr": "OR"
    }
  },
  {
    "name": "McAllen-Miller International Airport",
    "city": "McAllen",
    "iata": "MFE",
    "latitude": "26.176000",
    "longitude": "-98.239040",
    "country": {
      "name": "United States",
      "iso": "US"
    },
    "state": {
      "name": "Texas",
      "abbr": "TX"
    }
  },
  {
    "name": "Huntsville International Airport ",
    "city": "Huntsville",
    "iata": "HSV",
    "latitude": "34.640333",
    "longitude": "-86.775690",
    "country": {
      "name": "United States",
      "iso": "US"
    },
    "state": {
      "name": "Alabama",
      "abbr": "AL"
    }
  },
  {
    "name": "Tri-State Airport ",
    "city": "Huntington",
    "iata": "HTS",
    "latitude": "38.368378",
    "longitude": "-82.558529",
    "country": {
      "name": "United States",
      "iso": "US"
    },
    "state": {
      "name": "West Virginia",
      "abbr": "WV"
    }
  },
  {
    "name": "Terre Haute International Airport ",
    "city": "Terre Haute",
    "iata": "HUF",
    "latitude": "39.451870",
    "longitude": "-87.308907",
    "country": {
      "name": "United States",
      "iso": "US"
    },
    "state": {
      "name": "Indiana",
      "abbr": "IN"
    }
  },
  {
    "name": "Memphis International Airport",
    "city": "Memphis",
    "iata": "MEM",
    "latitude": "35.044711",
    "longitude": "-89.981521",
    "country": {
      "name": "United States",
      "iso": "US"
    },
    "state": {
      "name": "Tennessee",
      "abbr": "TN"
    }
  },
  {
    "name": "Midway International Airport",
    "city": "Chicago",
    "iata": "MDW",
    "latitude": "41.786574",
    "longitude": "-87.743122",
    "country": {
      "name": "United States",
      "iso": "US"
    },
    "state": {
      "name": "Illinois",
      "abbr": "IL"
    }
  },
  {
    "name": "Washington Dulles International Airport",
    "city": "Washington",
    "iata": "IAD",
    "latitude": "38.953116",
    "longitude": "-77.456539",
    "country": {
      "name": "United States",
      "iso": "US"
    },
    "state": {
      "name": "District of Columbia",
      "abbr": "DC"
    }
  },
  {
    "name": "Niagara Falls International Airport",
    "city": "Niagara Falls",
    "iata": "IAG",
    "latitude": "43.105806",
    "longitude": "-78.943255",
    "country": {
      "name": "United States",
      "iso": "US"
    },
    "state": {
      "name": "New York",
      "abbr": "NY"
    }
  },
  {
    "name": "Valley International Airport",
    "city": "Harlingen",
    "iata": "HRL",
    "latitude": "26.223905",
    "longitude": "-97.662017",
    "country": {
      "name": "United States",
      "iso": "US"
    },
    "state": {
      "name": "Texas",
      "abbr": "TX"
    }
  },
  {
    "name": "Montgomery Regional Airport ",
    "city": "Montgomery",
    "iata": "MGM",
    "latitude": "32.301189",
    "longitude": "-86.391542",
    "country": {
      "name": "United States",
      "iso": "US"
    },
    "state": {
      "name": "Alabama",
      "abbr": "AL"
    }
  },
  {
    "name": "William P. Hobby Airport",
    "city": "Houston",
    "iata": "HOU",
    "latitude": "29.654214",
    "longitude": "-95.276659",
    "country": {
      "name": "United States",
      "iso": "US"
    },
    "state": {
      "name": "Texas",
      "abbr": "TX"
    }
  },
  {
    "name": "Gerald R. Ford International Airport",
    "city": "Grand Rapids",
    "iata": "GRR",
    "latitude": "42.884663",
    "longitude": "-85.524843",
    "country": {
      "name": "United States",
      "iso": "US"
    },
    "state": {
      "name": "Michigan",
      "abbr": "MI"
    }
  },
  {
    "name": "Piedmont Triad International Airport",
    "city": "Greensboro",
    "iata": "GSO",
    "latitude": "36.104367",
    "longitude": "-79.935181",
    "country": {
      "name": "United States",
      "iso": "US"
    },
    "state": {
      "name": "North Carolina",
      "abbr": "NC"
    }
  },
  {
    "name": "Greenville-Spartanburg International Airport",
    "city": "Greenville",
    "iata": "GSP",
    "latitude": "34.895901",
    "longitude": "-82.217234",
    "country": {
      "name": "United States",
      "iso": "US"
    },
    "state": {
      "name": "South Carolina",
      "abbr": "SC"
    }
  },
  {
    "name": "Great Falls International Airport",
    "city": "Great Falls",
    "iata": "GTF",
    "latitude": "47.482390",
    "longitude": "-111.356738",
    "country": {
      "name": "United States",
      "iso": "US"
    },
    "state": {
      "name": "Montana",
      "abbr": "MT"
    }
  },
  {
    "name": "General Mitchell International Airport",
    "city": "Milwaukee",
    "iata": "MKE",
    "latitude": "42.947553",
    "longitude": "-87.896646",
    "country": {
      "name": "United States",
      "iso": "US"
    },
    "state": {
      "name": "Wisconsin",
      "abbr": "WI"
    }
  },
  {
    "name": "Gary/Chicago International Airport",
    "city": "Gary",
    "iata": "GYY",
    "latitude": "41.617784",
    "longitude": "-87.408393",
    "country": {
      "name": "United States",
      "iso": "US"
    },
    "state": {
      "name": "Indiana",
      "abbr": "IN"
    }
  },
  {
    "name": "Range Regional Airport",
    "city": "Hibbing",
    "iata": "HIB",
    "latitude": "47.392156",
    "longitude": "-92.842146",
    "country": {
      "name": "United States",
      "iso": "US"
    },
    "state": {
      "name": "Minnesota",
      "abbr": "MN"
    }
  },
  {
    "name": "Miami International Airport",
    "city": "Miami",
    "iata": "MIA",
    "latitude": "25.795865",
    "longitude": "-80.287046",
    "country": {
      "name": "United States",
      "iso": "US"
    },
    "state": {
      "name": "Florida",
      "abbr": "FL"
    }
  },
  {
    "name": "Manchester–Boston Regional Airport",
    "city": "Manchester",
    "iata": "MHT",
    "latitude": "42.928659",
    "longitude": "-71.439983",
    "country": {
      "name": "United States",
      "iso": "US"
    },
    "state": {
      "name": "New Hampshire",
      "abbr": "NH"
    }
  },
  {
    "name": "George Bush Intercontinental Airport",
    "city": "Houston",
    "iata": "IAH",
    "latitude": "29.990220",
    "longitude": "-95.336783",
    "country": {
      "name": "United States",
      "iso": "US"
    },
    "state": {
      "name": "Texas",
      "abbr": "TX"
    }
  },
  {
    "name": "Wichita Mid-Continent Airport",
    "city": "Wichita",
    "iata": "ICT",
    "latitude": "37.650853",
    "longitude": "-97.428699",
    "country": {
      "name": "United States",
      "iso": "US"
    },
    "state": {
      "name": "Kansas",
      "abbr": "KS"
    }
  },
  {
    "name": "Joplin Regional Airport",
    "city": "Joplin",
    "iata": "JLN",
    "latitude": "37.152398",
    "longitude": "-94.498618",
    "country": {
      "name": "United States",
      "iso": "US"
    },
    "state": {
      "name": "Missouri",
      "abbr": "MO"
    }
  },
  {
    "name": "Las Cruces International Airport",
    "city": "Las Cruces",
    "iata": "LRU",
    "latitude": "32.290822",
    "longitude": "-106.920805",
    "country": {
      "name": "United States",
      "iso": "US"
    },
    "state": {
      "name": "New Mexico",
      "abbr": "NM"
    }
  },
  {
    "name": "Lansing Capital City Airport",
    "city": "Lansing",
    "iata": "LAN",
    "latitude": "42.775020",
    "longitude": "-84.589427",
    "country": {
      "name": "United States",
      "iso": "US"
    },
    "state": {
      "name": "Michigan",
      "abbr": "MI"
    }
  },
  {
    "name": "Laredo International Airport",
    "city": "Laredo",
    "iata": "LRD",
    "latitude": "27.543799",
    "longitude": "-99.457501",
    "country": {
      "name": "United States",
      "iso": "US"
    },
    "state": {
      "name": "Texas",
      "abbr": "TX"
    }
  },
  {
    "name": "McCarran International Airport",
    "city": "Las Vegas",
    "iata": "LAS",
    "latitude": "36.084000",
    "longitude": "-115.153739",
    "country": {
      "name": "United States",
      "iso": "US"
    },
    "state": {
      "name": "Nevada",
      "abbr": "NV"
    }
  },
  {
    "name": "Los Angeles International Airport",
    "city": "Los Angeles",
    "iata": "LAX",
    "latitude": "33.941589",
    "longitude": "-118.408530",
    "country": {
      "name": "United States",
      "iso": "US"
    },
    "state": {
      "name": "California",
      "abbr": "CA"
    }
  },
  {
    "name": "Lubbock Preston Smith International Airport",
    "city": "Lubbock",
    "iata": "LBB",
    "latitude": "33.656270",
    "longitude": "-101.820975",
    "country": {
      "name": "United States",
      "iso": "US"
    },
    "state": {
      "name": "Texas",
      "abbr": "TX"
    }
  },
  {
    "name": "Clinton National Airport",
    "city": "Little Rock",
    "iata": "LIT",
    "latitude": "34.730705",
    "longitude": "-92.221653",
    "country": {
      "name": "United States",
      "iso": "US"
    },
    "state": {
      "name": "Arkansas",
      "abbr": "AR"
    }
  },
  {
    "name": "Blue Grass Airport",
    "city": "Lexington",
    "iata": "LEX",
    "latitude": "38.037761",
    "longitude": "-84.602608",
    "country": {
      "name": "United States",
      "iso": "US"
    },
    "state": {
      "name": "Kentucky",
      "abbr": "KY"
    }
  },
  {
    "name": "John F. Kennedy International Airport",
    "city": "New York City",
    "iata": "JFK",
    "latitude": "40.641311",
    "longitude": "-73.778139",
    "country": {
      "name": "United States",
      "iso": "US"
    },
    "state": {
      "name": "New York",
      "abbr": "NY"
    }
  },
  {
    "name": "Jacksonville International Airport",
    "city": "Jacksonville",
    "iata": "JAX",
    "latitude": "30.494071",
    "longitude": "-81.687937",
    "country": {
      "name": "United States",
      "iso": "US"
    },
    "state": {
      "name": "Florida",
      "abbr": "FL"
    }
  },
  {
    "name": "Jackson-Evers International Airport",
    "city": "Jackson",
    "iata": "JAN",
    "latitude": "32.312228",
    "longitude": "-90.076422",
    "country": {
      "name": "United States",
      "iso": "US"
    },
    "state": {
      "name": "Mississippi",
      "abbr": "MS"
    }
  },
  {
    "name": "Harrisburg International Airport",
    "city": "Harrisburg",
    "iata": "MDT",
    "latitude": "40.194238",
    "longitude": "-76.757667",
    "country": {
      "name": "United States",
      "iso": "US"
    },
    "state": {
      "name": "Pennsylvania",
      "abbr": "PA"
    }
  },
  {
    "name": " Laughlin Bullhead International Airport",
    "city": "Bullhead City",
    "iata": "IFP",
    "latitude": "35.156326",
    "longitude": "-114.558494",
    "country": {
      "name": "United States",
      "iso": "US"
    },
    "state": {
      "name": "Arizona",
      "abbr": "AZ"
    }
  },
  {
    "name": "Orlando International Airport",
    "city": "Orlando",
    "iata": "MCO",
    "latitude": "28.431086",
    "longitude": "-81.307894",
    "country": {
      "name": "United States",
      "iso": "US"
    },
    "state": {
      "name": "Florida",
      "abbr": "FL"
    }
  },
  {
    "name": "Wilmington International Airport",
    "city": "Wilmington",
    "iata": "ILM",
    "latitude": "34.266802",
    "longitude": "-77.910371",
    "country": {
      "name": "United States",
      "iso": "US"
    },
    "state": {
      "name": "North Carolina",
      "abbr": "NC"
    }
  },
  {
    "name": "Indianapolis International Airport",
    "city": "Indianapolis",
    "iata": "IND",
    "latitude": "39.714963",
    "longitude": "-86.297705",
    "country": {
      "name": "United States",
      "iso": "US"
    },
    "state": {
      "name": "Indiana",
      "abbr": "IN"
    }
  },
  {
    "name": "Falls International Airport",
    "city": "International Falls",
    "iata": "INL",
    "latitude": "48.566111",
    "longitude": "-93.403056",
    "country": {
      "name": "United States",
      "iso": "US"
    },
    "state": {
      "name": "Minnesota",
      "abbr": "MN"
    }
  },
  {
    "name": "Kansas City International Airport",
    "city": "Kansas City",
    "iata": "MCI",
    "latitude": "39.300643",
    "longitude": "-94.712594",
    "country": {
      "name": "United States",
      "iso": "US"
    },
    "state": {
      "name": "Missouri",
      "abbr": "MO"
    }
  },
  {
    "name": "MBS International Airport",
    "city": "Freeland",
    "iata": "MBS",
    "latitude": "43.532899",
    "longitude": "-84.085077",
    "country": {
      "name": "United States",
      "iso": "US"
    },
    "state": {
      "name": "Michigan",
      "abbr": "MI"
    }
  },
  {
    "name": "Midland International Air and Space Port",
    "city": "Midland",
    "iata": "MAF",
    "latitude": "31.941739",
    "longitude": "-102.204750",
    "country": {
      "name": "United States",
      "iso": "US"
    },
    "state": {
      "name": "Texas",
      "abbr": "TX"
    }
  },
  {
    "name": "Lafayette Regional Airport",
    "city": "Lafayette",
    "iata": "LFT",
    "latitude": "30.207473",
    "longitude": "-91.991963",
    "country": {
      "name": "United States",
      "iso": "US"
    },
    "state": {
      "name": "Louisiana",
      "abbr": "LA"
    }
  },
  {
    "name": "Greater Peoria Regional Airport",
    "city": "Peoria",
    "iata": "PIA",
    "latitude": "40.664167",
    "longitude": "-89.693056",
    "country": {
      "name": "United States",
      "iso": "US"
    },
    "state": {
      "name": "Illinois",
      "abbr": "IL"
    }
  },
  {
    "name": "Erie International Airport ",
    "city": "Erie",
    "iata": "ERI",
    "latitude": "42.082510",
    "longitude": "-80.174739",
    "country": {
      "name": "United States",
      "iso": "US"
    },
    "state": {
      "name": "Pennsylvania",
      "abbr": "PA"
    }
  },
  {
    "name": "Newark Liberty International Airport",
    "city": "Newark",
    "iata": "EWR",
    "latitude": "40.689531",
    "longitude": "-74.174462",
    "country": {
      "name": "United States",
      "iso": "US"
    },
    "state": {
      "name": "New Jersey",
      "abbr": "NJ"
    }
  },
  {
    "name": "Key West International Airport",
    "city": "Key West",
    "iata": "EYW",
    "latitude": "24.553479",
    "longitude": "-81.754483",
    "country": {
      "name": "United States",
      "iso": "US"
    },
    "state": {
      "name": "Florida",
      "abbr": "FL"
    }
  },
  {
    "name": "Hector International Airport",
    "city": "Fargo",
    "iata": "FAR",
    "latitude": "46.919924",
    "longitude": "-96.825663",
    "country": {
      "name": "United States",
      "iso": "US"
    },
    "state": {
      "name": "North Dakota",
      "abbr": "ND"
    }
  },
  {
    "name": "Fresno Yosemite International Airport",
    "city": "Fresno",
    "iata": "FAT",
    "latitude": "36.775849",
    "longitude": "-119.718108",
    "country": {
      "name": "United States",
      "iso": "US"
    },
    "state": {
      "name": "California",
      "abbr": "CA"
    }
  },
  {
    "name": "Norfolk International Airport",
    "city": "Norfolk",
    "iata": "ORF",
    "latitude": "36.895684",
    "longitude": "-76.200016",
    "country": {
      "name": "United States",
      "iso": "US"
    },
    "state": {
      "name": "Virginia",
      "abbr": "VA"
    }
  },
  {
    "name": "Ontario International Airport",
    "city": "Ontario",
    "iata": "ONT",
    "latitude": "34.055978",
    "longitude": "-117.598057",
    "country": {
      "name": "United States",
      "iso": "US"
    },
    "state": {
      "name": "California",
      "abbr": "CA"
    }
  },
  {
    "name": "Will Rogers World Airport",
    "city": "Oklahoma City",
    "iata": "OKC",
    "latitude": "35.393056",
    "longitude": "-97.600556",
    "country": {
      "name": "United States",
      "iso": "US"
    },
    "state": {
      "name": "Oklahoma",
      "abbr": "OK"
    }
  },
  {
    "name": "Oakland International Airport",
    "city": "Oakland",
    "iata": "OAK",
    "latitude": "37.712569",
    "longitude": "-122.219743",
    "country": {
      "name": "United States",
      "iso": "US"
    },
    "state": {
      "name": "California",
      "abbr": "CA"
    }
  },
  {
    "name": "El Paso International Airport",
    "city": "El Paso",
    "iata": "ELP",
    "latitude": "31.805335",
    "longitude": "-106.382434",
    "country": {
      "name": "United States",
      "iso": "US"
    },
    "state": {
      "name": "Texas",
      "abbr": "TX"
    }
  },
  {
    "name": "La Guardia Airport",
    "city": "New York City",
    "iata": "LGA",
    "latitude": "40.776927",
    "longitude": "-73.873966",
    "country": {
      "name": "United States",
      "iso": "US"
    },
    "state": {
      "name": "New York",
      "abbr": "NY"
    }
  },
  {
    "name": "Plattsburgh International Airport",
    "city": "Plattsburgh",
    "iata": "PBG",
    "latitude": "44.659709",
    "longitude": "-73.467221",
    "country": {
      "name": "United States",
      "iso": "US"
    },
    "state": {
      "name": "New York",
      "abbr": "NY"
    }
  },
  {
    "name": "Des Moines International Airport",
    "city": "Des Moines",
    "iata": "DSM",
    "latitude": "41.534133",
    "longitude": "-93.658796",
    "country": {
      "name": "United States",
      "iso": "US"
    },
    "state": {
      "name": "Iowa",
      "abbr": "IA"
    }
  },
  {
    "name": "Detroit Metropolitan Airport",
    "city": "Romulus",
    "iata": "DTW",
    "latitude": "42.216172",
    "longitude": "-83.355384",
    "country": {
      "name": "United States",
      "iso": "US"
    },
    "state": {
      "name": "Michigan",
      "abbr": "MI"
    }
  },
  {
    "name": "Sky Harbor International Airport",
    "city": "Phoenix",
    "iata": "PHX",
    "latitude": "33.437269",
    "longitude": "-112.007788",
    "country": {
      "name": "United States",
      "iso": "US"
    },
    "state": {
      "name": "Arizona",
      "abbr": "AZ"
    }
  },
  {
    "name": "Philadelphia International Airport",
    "city": "Philadelphia",
    "iata": "PHL",
    "latitude": "39.874396",
    "longitude": "-75.242423",
    "country": {
      "name": "United States",
      "iso": "US"
    },
    "state": {
      "name": "Pennsylvania",
      "abbr": "PA"
    }
  },
  {
    "name": "Newport News Williamsburg International Airport",
    "city": "Newport News",
    "iata": "PHF",
    "latitude": "37.131667",
    "longitude": "-76.492778",
    "country": {
      "name": "United States",
      "iso": "US"
    },
    "state": {
      "name": "Virginia",
      "abbr": "VA"
    }
  },
  {
    "name": "Panama City-Bay County International Airport",
    "city": "Panama City",
    "iata": "PFN",
    "latitude": "30.352934",
    "longitude": "-85.794270",
    "country": {
      "name": "United States",
      "iso": "US"
    },
    "state": {
      "name": "Florida",
      "abbr": "FL"
    }
  },
  {
    "name": "Portland International Airport",
    "city": "Portland",
    "iata": "PDX",
    "latitude": "45.589769",
    "longitude": "-122.595094",
    "country": {
      "name": "United States",
      "iso": "US"
    },
    "state": {
      "name": "Oregon",
      "abbr": "OR"
    }
  },
  {
    "name": "Northwest Florida Beaches International Airport",
    "city": "Panama City",
    "iata": "ECP",
    "latitude": "30.352934",
    "longitude": "-85.794270",
    "country": {
      "name": "United States",
      "iso": "US"
    },
    "state": {
      "name": "Florida",
      "abbr": "FL"
    }
  },
  {
    "name": "Palm Beach International Airport",
    "city": "West Palm Beach",
    "iata": "PBI",
    "latitude": "26.685748",
    "longitude": "-80.092817",
    "country": {
      "name": "United States",
      "iso": "US"
    },
    "state": {
      "name": "Florida",
      "abbr": "FL"
    }
  },
  {
    "name": "Fort Lauderdale-Hollywood International Airport",
    "city": "Fort Lauderdale",
    "iata": "FLL",
    "latitude": "26.074234",
    "longitude": "-80.150602",
    "country": {
      "name": "United States",
      "iso": "US"
    },
    "state": {
      "name": "Florida",
      "abbr": "FL"
    }
  },
  {
    "name": "Yuma International Airport",
    "city": "Yuma",
    "iata": "YUM",
    "latitude": "32.668348",
    "longitude": "-114.598931",
    "country": {
      "name": "United States",
      "iso": "US"
    },
    "state": {
      "name": "Arizona",
      "abbr": "AZ"
    }
  },
  {
    "name": "Spokane International Airport",
    "city": "Spokane",
    "iata": "GEG",
    "latitude": "47.621748",
    "longitude": "-117.534812",
    "country": {
      "name": "United States",
      "iso": "US"
    },
    "state": {
      "name": "Washington",
      "abbr": "WA"
    }
  },
  {
    "name": "Grand Forks International Airport",
    "city": "Grand Forks",
    "iata": "GFK",
    "latitude": "47.942861",
    "longitude": "-97.176582",
    "country": {
      "name": "United States",
      "iso": "US"
    },
    "state": {
      "name": "North Dakota",
      "abbr": "ND"
    }
  },
  {
    "name": "Mobile Regional Airport",
    "city": "Mobile",
    "iata": "MOB",
    "latitude": "30.681086",
    "longitude": "-88.244750",
    "country": {
      "name": "United States",
      "iso": "US"
    },
    "state": {
      "name": "Alabama",
      "abbr": "AL"
    }
  },
  {
    "name": "Glasgow Airport ",
    "city": "Glasgow",
    "iata": "GGW",
    "latitude": "48.212168",
    "longitude": "-106.613749",
    "country": {
      "name": "United States",
      "iso": "US"
    },
    "state": {
      "name": "Montana",
      "abbr": "MT"
    }
  },
  {
    "name": "Monroe Regional Airport",
    "city": "Monroe",
    "iata": "MLU",
    "latitude": "32.510147",
    "longitude": "-92.043683",
    "country": {
      "name": "United States",
      "iso": "US"
    },
    "state": {
      "name": "Louisiana",
      "abbr": "LA"
    }
  },
  {
    "name": "Scholes International Airport ",
    "city": "Galveston",
    "iata": "GLS",
    "latitude": "29.268249",
    "longitude": "-94.855226",
    "country": {
      "name": "United States",
      "iso": "US"
    },
    "state": {
      "name": "Texas",
      "abbr": "TX"
    }
  },
  {
    "name": "Quad City International Airport",
    "city": "Moline",
    "iata": "MLI",
    "latitude": "41.449634",
    "longitude": "-90.508271",
    "country": {
      "name": "United States",
      "iso": "US"
    },
    "state": {
      "name": "Illinois",
      "abbr": "IL"
    }
  },
  {
    "name": "Glacier Park International Airport ",
    "city": "Kalispell",
    "iata": "FCA",
    "latitude": "48.311096",
    "longitude": "-114.254243",
    "country": {
      "name": "United States",
      "iso": "US"
    },
    "state": {
      "name": "Montana",
      "abbr": "MT"
    }
  },
  {
    "name": "Gulfport-Biloxi International Airport",
    "city": "Gulfport",
    "iata": "GPT",
    "latitude": "30.413380",
    "longitude": "-89.072958",
    "country": {
      "name": "United States",
      "iso": "US"
    },
    "state": {
      "name": "Mississippi",
      "abbr": "MS"
    }
  },
  {
    "name": "Minot International Airport",
    "city": "Minot",
    "iata": "MOT",
    "latitude": "48.255651",
    "longitude": "-101.291464",
    "country": {
      "name": "United States",
      "iso": "US"
    },
    "state": {
      "name": "North Dakota",
      "abbr": "ND"
    }
  },
  {
    "name": "Fort Wayne International Airport",
    "city": "Fort Wayne",
    "iata": "FWA",
    "latitude": "40.986464",
    "longitude": "-85.188148",
    "country": {
      "name": "United States",
      "iso": "US"
    },
    "state": {
      "name": "Indiana",
      "abbr": "IN"
    }
  },
  {
    "name": "Fort Worth Meacham International Airport",
    "city": "Fort Worth",
    "iata": "FTW",
    "latitude": "32.820426",
    "longitude": "-97.359759",
    "country": {
      "name": "United States",
      "iso": "US"
    },
    "state": {
      "name": "Texas",
      "abbr": "TX"
    }
  },
  {
    "name": "Bishop International Airport",
    "city": "Flint",
    "iata": "FNT",
    "latitude": "42.968790",
    "longitude": "-83.744327",
    "country": {
      "name": "United States",
      "iso": "US"
    },
    "state": {
      "name": "Michigan",
      "abbr": "MI"
    }
  },
  {
    "name": "Myrtle Beach International Airport",
    "city": "Myrtle Beach",
    "iata": "MYR",
    "latitude": "33.682202",
    "longitude": "-78.927894",
    "country": {
      "name": "United States",
      "iso": "US"
    },
    "state": {
      "name": "South Carolina",
      "abbr": "SC"
    }
  },
  {
    "name": "Louis Armstrong New Orleans International Airport ",
    "city": "New Orleans",
    "iata": "MSY",
    "latitude": "29.992201",
    "longitude": "-90.259011",
    "country": {
      "name": "United States",
      "iso": "US"
    },
    "state": {
      "name": "Louisiana",
      "abbr": "LA"
    }
  },
  {
    "name": "St. Lucie County International Airport",
    "city": "Fort Pierce",
    "iata": "FPR",
    "latitude": "27.491922",
    "longitude": "-80.366600",
    "country": {
      "name": "United States",
      "iso": "US"
    },
    "state": {
      "name": "Florida",
      "abbr": "FL"
    }
  },
  {
    "name": "Massena International Airport ",
    "city": "Massena",
    "iata": "MSS",
    "latitude": "44.935833",
    "longitude": "-74.845556",
    "country": {
      "name": "United States",
      "iso": "US"
    },
    "state": {
      "name": "New York",
      "abbr": "NY"
    }
  },
  {
    "name": "Minneapolis-Saint Paul International Airport ",
    "city": "Bloomington",
    "iata": "MSP",
    "latitude": "44.884755",
    "longitude": "-93.222285",
    "country": {
      "name": "United States",
      "iso": "US"
    },
    "state": {
      "name": "Minnesota",
      "abbr": "MN"
    }
  },
  {
    "name": "Missoula International Airport",
    "city": "Missoula",
    "iata": "MSO",
    "latitude": "46.918817",
    "longitude": "-114.083736",
    "country": {
      "name": "United States",
      "iso": "US"
    },
    "state": {
      "name": "Montana",
      "abbr": "MT"
    }
  },
  {
    "name": "Dane County Regional Airport ",
    "city": "Madison",
    "iata": "MSN",
    "latitude": "43.139066",
    "longitude": "-89.336413",
    "country": {
      "name": "United States",
      "iso": "US"
    },
    "state": {
      "name": "Wisconsin",
      "abbr": "WI"
    }
  },
  {
    "name": "Fort Smith Regional Airport",
    "city": "Fort Smith",
    "iata": "FSM",
    "latitude": "35.336006",
    "longitude": "-94.366841",
    "country": {
      "name": "United States",
      "iso": "US"
    },
    "state": {
      "name": "Arkansas",
      "abbr": "AR"
    }
  },
  {
    "name": "Austin Straubel International Airport",
    "city": "Green Bay",
    "iata": "GRB",
    "latitude": "44.486159",
    "longitude": "-88.132082",
    "country": {
      "name": "United States",
      "iso": "US"
    },
    "state": {
      "name": "Wisconsin",
      "abbr": "WI"
    }
  },
  {
    "name": "Andrews Air Force Base",
    "city": "Camp Springs",
    "iata": "ADW",
    "latitude": "38.796520",
    "longitude": "-76.883626",
    "country": {
      "name": "United States",
      "iso": "US"
    },
    "state": {
      "name": "Maryland",
      "abbr": "MD"
    }
  },
  {
    "name": "Fairbanks International Airport",
    "city": "Fairbanks",
    "iata": "FAI",
    "latitude": "64.816416",
    "longitude": "-147.863517",
    "country": {
      "name": "United States",
      "iso": "US"
    },
    "state": {
      "name": "Alaska",
      "abbr": "AK"
    }
  },
  {
    "name": "Antonio B. Won Pat International Airport ",
    "city": "Hagåtña",
    "iata": "GUM",
    "latitude": "13.483056",
    "longitude": "144.795556",
    "country": {
      "name": "Guam",
      "iso": "GU"
    },
    "state": {
      "name": "United States"
    }
  },
  {
    "name": "Ted Stevens Anchorage International Airport",
    "city": "Anchorage",
    "iata": "ANC",
    "latitude": "61.175886",
    "longitude": "-149.990079",
    "country": {
      "name": "United States",
      "iso": "US"
    },
    "state": {
      "name": "Alaska",
      "abbr": "AK"
    }
  },
  {
    "name": "Atlantic City International Airport",
    "city": "Atlantic City",
    "iata": "ACY",
    "latitude": "39.451312",
    "longitude": "-74.572196",
    "country": {
      "name": "United States",
      "iso": "US"
    },
    "state": {
      "name": "New Jersey",
      "abbr": "NJ"
    }
  },
  {
    "name": "Hilo International Airport",
    "city": "Hilo",
    "iata": "ITO",
    "latitude": "19.718834",
    "longitude": "-155.041687",
    "country": {
      "name": "United States",
      "iso": "US"
    },
    "state": {
      "name": "Hawaii",
      "abbr": "HI"
    }
  },
  {
    "name": "Honolulu International Airport",
    "city": "Honolulu",
    "iata": "HNL",
    "latitude": "21.324513",
    "longitude": "-157.925074",
    "country": {
      "name": "United States",
      "iso": "US"
    },
    "state": {
      "name": "Hawaii",
      "abbr": "HI"
    }
  },
  {
    "name": "Albuquerque International Sunport",
    "city": "Albuquerque",
    "iata": "ABQ",
    "latitude": "35.043333",
    "longitude": "-106.612909",
    "country": {
      "name": "United States",
      "iso": "US"
    },
    "state": {
      "name": "New Mexico",
      "abbr": "NM"
    }
  },
  {
    "name": "Lehigh Valley International Airport",
    "city": "Allentown",
    "iata": "ABE",
    "latitude": "40.652941",
    "longitude": "-75.436502",
    "country": {
      "name": "United States",
      "iso": "US"
    },
    "state": {
      "name": "Pennsylvania",
      "abbr": "PA"
    }
  },
  {
    "name": "Kona International Airport",
    "city": "Kailua",
    "iata": "KOA",
    "latitude": "19.736916",
    "longitude": "-156.042925",
    "country": {
      "name": "United States",
      "iso": "US"
    },
    "state": {
      "name": "Hawaii",
      "abbr": "HI"
    }
  },
  {
    "name": "Juneau International Airport",
    "city": "Juneau",
    "iata": "JNU",
    "latitude": "58.357981",
    "longitude": "-134.583179",
    "country": {
      "name": "United States",
      "iso": "US"
    },
    "state": {
      "name": "Alaska",
      "abbr": "AK"
    }
  },
  {
    "name": "Ketchikan International Airport",
    "city": "Ketchikan",
    "iata": "KTN",
    "latitude": "55.355411",
    "longitude": "-131.710560",
    "country": {
      "name": "United States",
      "iso": "US"
    },
    "state": {
      "name": "Alaska",
      "abbr": "AK"
    }
  },
  {
    "name": "Northwest Florida Regional Airport / Eglin AFB",
    "city": "Valaparaiso",
    "iata": "VPS",
    "latitude": "30.495404",
    "longitude": "-86.549484",
    "country": {
      "name": "United States",
      "iso": "US"
    },
    "state": {
      "name": "Florida",
      "abbr": "FL"
    }
  },
  {
    "name": "Albany International Airport",
    "city": "Albany",
    "iata": "ALB",
    "latitude": "42.748712",
    "longitude": "-73.805498",
    "country": {
      "name": "United States",
      "iso": "US"
    },
    "state": {
      "name": "New York",
      "abbr": "NY"
    }
  },
  {
    "name": "Fort Worth Alliance Airport",
    "city": "Fort Worth",
    "iata": "AFW",
    "latitude": "32.986772",
    "longitude": "-97.312302",
    "country": {
      "name": "United States",
      "iso": "US"
    },
    "state": {
      "name": "Texas",
      "abbr": "TX"
    }
  },
  {
    "name": "Alice International Airport",
    "city": "Alice",
    "iata": "ALI",
    "latitude": "27.740833",
    "longitude": "-98.027222",
    "country": {
      "name": "United States",
      "iso": "US"
    },
    "state": {
      "name": "Texas",
      "abbr": "TX"
    }
  },
  {
    "name": "John Wayne Airport",
    "city": "Orange",
    "iata": "OMH",
    "latitude": "33.676190",
    "longitude": "-117.867476",
    "country": {
      "name": "United States",
      "iso": "US"
    },
    "state": {
      "name": "California",
      "abbr": "CA"
    }
  },
  {
    "name": "O\"Hare International Airport ",
    "city": "Chicago",
    "iata": "ORD",
    "latitude": "41.974162",
    "longitude": "-87.907321",
    "country": {
      "name": "United States",
      "iso": "US"
    },
    "state": {
      "name": "Illinois",
      "abbr": "IL"
    }
  },
  {
    "name": "Akron Fulton International Airport ",
    "city": "Akron",
    "iata": "AKC",
    "latitude": "41.032668",
    "longitude": "-81.469093",
    "country": {
      "name": "United States",
      "iso": "US"
    },
    "state": {
      "name": "Ohio",
      "abbr": "OH"
    }
  },
  {
    "name": "Alexandria International Airport",
    "city": "Alexandria",
    "iata": "AEX",
    "latitude": "31.322388",
    "longitude": "-92.542881",
    "country": {
      "name": "United States",
      "iso": "US"
    },
    "state": {
      "name": "Louisiana",
      "abbr": "LA"
    }
  },
  {
    "name": "Tinian International Airport",
    "city": "Tinian Island",
    "iata": "TNI",
    "latitude": "14.999211",
    "longitude": "145.624804",
    "country": {
      "name": "United States",
      "iso": "US"
    },
    "state": {
      "name": "Northern Mariana Islands",
      "abbr": "MP"
    }
  },
  {
    "name": "Augusta Regional Airport at Bush Field",
    "city": "Augusta",
    "iata": "AGS",
    "latitude": "33.373766",
    "longitude": "-81.972235",
    "country": {
      "name": "United States",
      "iso": "US"
    },
    "state": {
      "name": "Georgia",
      "abbr": "GA"
    }
  },
  {
    "name": "Eareckson AS",
    "city": "Shemya",
    "iata": "SYA",
    "latitude": "52.717500",
    "longitude": "174.089450",
    "country": {
      "name": "United States",
      "iso": "US"
    },
    "state": {
      "name": null
    }
  },
  {
    "name": "Soldotna Airport",
    "city": "Soldotna",
    "iata": "SXQ",
    "latitude": "60.475555",
    "longitude": "0.000000",
    "country": {
      "name": "United States",
      "iso": "US"
    },
    "state": {
      "name": null
    }
  },
  {
    "name": "Olympia Regional Airport",
    "city": "Olympia",
    "iata": "OLM",
    "latitude": "47.052042",
    "longitude": "-122.902851",
    "country": {
      "name": "United States",
      "iso": "US"
    },
    "state": {
      "name": "Washington",
      "abbr": "WA"
    }
  },
  {
    "name": "Northwest Alabama Regional Airport",
    "city": "Muscle Shoals",
    "iata": "MSL",
    "latitude": "34.745190",
    "longitude": "-87.611724",
    "country": {
      "name": "United States",
      "iso": "US"
    },
    "state": {
      "name": "Alabama",
      "abbr": "AL"
    }
  },
  {
    "name": "La Crosse Regional Airport",
    "city": "La Crosse",
    "iata": "LSE",
    "latitude": "43.875330",
    "longitude": "-91.263547",
    "country": {
      "name": "United States",
      "iso": "US"
    },
    "state": {
      "name": "Wisconsin",
      "abbr": "WI"
    }
  },
  {
    "name": "Seward Airport",
    "city": "Seward",
    "iata": "SWD",
    "latitude": "60.133330",
    "longitude": "0.000000",
    "country": {
      "name": "United States",
      "iso": "US"
    },
    "state": {
      "name": null
    }
  },
  {
    "name": "Togiak Airport",
    "city": "Togiak Village",
    "iata": "TOG",
    "latitude": "59.056667",
    "longitude": "0.000000",
    "country": {
      "name": "United States",
      "iso": "US"
    },
    "state": {
      "name": null
    }
  },
  {
    "name": "Valdez Pioneer Field",
    "city": "Valdez",
    "iata": "VDZ",
    "latitude": "61.132500",
    "longitude": "0.000000",
    "country": {
      "name": "United States",
      "iso": "US"
    },
    "state": {
      "name": null
    }
  },
  {
    "name": "Waukegan Regional Airport",
    "city": "Chicago/Waukegan",
    "iata": "UGN",
    "latitude": "42.417413",
    "longitude": "-87.868837",
    "country": {
      "name": "United States",
      "iso": "US"
    },
    "state": {
      "name": "Illinois",
      "abbr": "IL"
    }
  },
  {
    "name": "Naval Air Engineering Station Lakehurst",
    "city": "Lakehurst",
    "iata": "NEL",
    "latitude": "40.031512",
    "longitude": "-74.338219",
    "country": {
      "name": "United States",
      "iso": "US"
    },
    "state": {
      "name": "New Jersey",
      "abbr": "NJ"
    }
  },
  {
    "name": "Rugby Municipal Airport",
    "city": "Rugby",
    "iata": "RUG",
    "latitude": "32.388332",
    "longitude": "120.555275",
    "country": {
      "name": "United States",
      "iso": "US"
    },
    "state": {
      "name": null
    }
  },
  {
    "name": "Kivalina Airport",
    "city": "Kivalina",
    "iata": "KVL",
    "latitude": "67.731670",
    "longitude": "0.000000",
    "country": {
      "name": "United States",
      "iso": "US"
    },
    "state": {
      "name": null
    }
  },
  {
    "name": "Atqasuk Edward Burnell Sr. Memorial Airport",
    "city": "Atqasuk",
    "iata": "ATK",
    "latitude": "70.500000",
    "longitude": "0.000000",
    "country": {
      "name": "United States",
      "iso": "US"
    },
    "state": {
      "name": null
    }
  },
  {
    "name": "Tatalina LRRS",
    "city": "Takotna",
    "iata": "TLJ",
    "latitude": "62.885277",
    "longitude": "0.000000",
    "country": {
      "name": "United States",
      "iso": "US"
    },
    "state": {
      "name": null
    }
  },
  {
    "name": "Eppley Airfield",
    "city": "Omaha",
    "iata": "OMA",
    "latitude": "41.299396",
    "longitude": "-95.899785",
    "country": {
      "name": "United States",
      "iso": "US"
    },
    "state": {
      "name": "Nebraska",
      "abbr": "NE"
    }
  },
  {
    "name": "Republic Airport",
    "city": "East Farmingdale",
    "iata": "FRG",
    "latitude": "40.729438",
    "longitude": "-73.414421",
    "country": {
      "name": "United States",
      "iso": "US"
    },
    "state": {
      "name": "New York",
      "abbr": "NY"
    }
  },
  {
    "name": "North Bend Municipal Airport",
    "city": "North Bend",
    "iata": "OTH",
    "latitude": "43.419430",
    "longitude": "-124.246879",
    "country": {
      "name": "United States",
      "iso": "US"
    },
    "state": {
      "name": "Oregon",
      "abbr": "OR"
    }
  },
  {
    "name": "A. L. Mangham Jr. Regional Airport",
    "city": "Nacogdoches",
    "iata": "OCH",
    "latitude": "31.578319",
    "longitude": "-94.703903",
    "country": {
      "name": "United States",
      "iso": "US"
    },
    "state": {
      "name": "Texas",
      "abbr": "TX"
    }
  },
  {
    "name": "Snohomish County Airport ",
    "city": "Everett",
    "iata": "PAE",
    "latitude": "47.907033",
    "longitude": "-122.281573",
    "country": {
      "name": "United States",
      "iso": "US"
    },
    "state": {
      "name": "Washington",
      "abbr": "WA"
    }
  },
  {
    "name": "Ottumwa Industrial Airport",
    "city": "Ottumwa",
    "iata": "OTM",
    "latitude": "41.106945",
    "longitude": "-92.448334",
    "country": {
      "name": "United States",
      "iso": "US"
    },
    "state": {
      "name": "Iowa",
      "abbr": "IA"
    }
  },
  {
    "name": "Sitka Rocky Gutierrez Airport",
    "city": "Sitka",
    "iata": "SIT",
    "latitude": "57.048610",
    "longitude": "0.000000",
    "country": {
      "name": "United States",
      "iso": "US"
    },
    "state": {
      "name": null
    }
  },
  {
    "name": "Owensboro-Daviess County Airport",
    "city": "Owensboro",
    "iata": "OWB",
    "latitude": "37.740870",
    "longitude": "-87.166529",
    "country": {
      "name": "United States",
      "iso": "US"
    },
    "state": {
      "name": "Kentucky",
      "abbr": "KY"
    }
  },
  {
    "name": "Shishmaref Airport",
    "city": "Shishmaref",
    "iata": "SHH",
    "latitude": "66.256503",
    "longitude": "-166.068353",
    "country": {
      "name": "United States",
      "iso": "US"
    },
    "state": {
      "name": "Alaska",
      "abbr": "AK"
    }
  },
  {
    "name": "Barkley Regional Airport",
    "city": "Paducah",
    "iata": "PAH",
    "latitude": "37.061254",
    "longitude": "-88.767445",
    "country": {
      "name": "United States",
      "iso": "US"
    },
    "state": {
      "name": "Kentucky",
      "abbr": "KY"
    }
  },
  {
    "name": "Wittman Regional Airport",
    "city": "Oshkosh",
    "iata": "OSH",
    "latitude": "43.994050",
    "longitude": "-88.551284",
    "country": {
      "name": "United States",
      "iso": "US"
    },
    "state": {
      "name": "Wisconsin",
      "abbr": "WI"
    }
  },
  {
    "name": "Worcester Regional Airport",
    "city": "Worcester",
    "iata": "ORH",
    "latitude": "42.268023",
    "longitude": "-71.873511",
    "country": {
      "name": "United States",
      "iso": "US"
    },
    "state": {
      "name": "Massachusetts",
      "abbr": "MA"
    }
  },
  {
    "name": "Sparrevohn LRRS",
    "city": "Sparrevohn",
    "iata": "SVW",
    "latitude": "61.097500",
    "longitude": "0.000000",
    "country": {
      "name": "United States",
      "iso": "US"
    },
    "state": {
      "name": null
    }
  },
  {
    "name": "Lancaster Airport",
    "city": "Lancaster",
    "iata": "LNS",
    "latitude": "40.118712",
    "longitude": "-76.299604",
    "country": {
      "name": "United States",
      "iso": "US"
    },
    "state": {
      "name": "Pennsylvania",
      "abbr": "PA"
    }
  },
  {
    "name": "Deadhorse Airport",
    "city": "Deadhorse",
    "iata": "SCC",
    "latitude": "70.196143",
    "longitude": "-148.458598",
    "country": {
      "name": "United States",
      "iso": "US"
    },
    "state": {
      "name": "Alaska",
      "abbr": "AK"
    }
  },
  {
    "name": "Lincoln Airport",
    "city": "Lincoln",
    "iata": "LNK",
    "latitude": "40.855587",
    "longitude": "-96.760485",
    "country": {
      "name": "United States",
      "iso": "US"
    },
    "state": {
      "name": "Nebraska",
      "abbr": "NE"
    }
  },
  {
    "name": "Klamath Falls Airport",
    "city": "Klamath Falls",
    "iata": "LMT",
    "latitude": "42.159031",
    "longitude": "-121.734051",
    "country": {
      "name": "United States",
      "iso": "US"
    },
    "state": {
      "name": "Oregon",
      "abbr": "OR"
    }
  },
  {
    "name": "Kalaeloa  Airport",
    "city": null,
    "iata": "JRF",
    "latitude": "0.000000",
    "longitude": "0.000000",
    "country": {
      "name": "United States",
      "iso": "US"
    },
    "state": {
      "name": null
    }
  },
  {
    "name": "Penn Station Airport",
    "city": "New York City",
    "iata": "ZYP",
    "latitude": "40.750568",
    "longitude": "-73.993519",
    "country": {
      "name": "United States",
      "iso": "US"
    },
    "state": {
      "name": "New York",
      "abbr": "NY"
    }
  },
  {
    "name": "Long Beach Airport",
    "city": "Long Beach",
    "iata": "LGB",
    "latitude": "33.818253",
    "longitude": "-118.144783",
    "country": {
      "name": "United States",
      "iso": "US"
    },
    "state": {
      "name": "California",
      "abbr": "CA"
    }
  },
  {
    "name": "St. Paul Island Airport",
    "city": "St. Paul Island",
    "iata": "SNP",
    "latitude": "57.152220",
    "longitude": "0.000000",
    "country": {
      "name": "United States",
      "iso": "US"
    },
    "state": {
      "name": null
    }
  },
  {
    "name": "Sand Point Airport",
    "city": "Sand Point",
    "iata": "SDP",
    "latitude": "55.317883",
    "longitude": "-160.522847",
    "country": {
      "name": "United States",
      "iso": "US"
    },
    "state": {
      "name": "Idaho",
      "abbr": "ID"
    }
  },
  {
    "name": "Diego Jimenez Torres Airport ",
    "city": "Fajardo",
    "iata": "FAJ",
    "latitude": "18.338888",
    "longitude": "0.000000",
    "country": {
      "name": "United States",
      "iso": "US"
    },
    "state": {
      "name": null
    }
  },
  {
    "name": "Arens Field",
    "city": "Winamac",
    "iata": "RWN",
    "latitude": "50.600000",
    "longitude": "26.150000",
    "country": {
      "name": "United States",
      "iso": "US"
    },
    "state": {
      "name": null
    }
  },
  {
    "name": "Taylorville Municipal Airport",
    "city": "Taylorville",
    "iata": "TAZ",
    "latitude": "41.833332",
    "longitude": "59.966667",
    "country": {
      "name": "United States",
      "iso": "US"
    },
    "state": {
      "name": null
    }
  },
  {
    "name": "Waimea-Kohala Airport",
    "city": "Kamuela",
    "iata": "MUE",
    "latitude": "20.012500",
    "longitude": "0.000000",
    "country": {
      "name": "United States",
      "iso": "US"
    },
    "state": {
      "name": null
    }
  },
  {
    "name": "Middle Georgia Regional Airport",
    "city": "Macon",
    "iata": "MCN",
    "latitude": "32.701987",
    "longitude": "-83.651882",
    "country": {
      "name": "United States",
      "iso": "US"
    },
    "state": {
      "name": "Georgia",
      "abbr": "GA"
    }
  },
  {
    "name": "Molokai Airport",
    "city": "Kaunakakai",
    "iata": "MKK",
    "latitude": "21.152779",
    "longitude": "0.000000",
    "country": {
      "name": "United States",
      "iso": "US"
    },
    "state": {
      "name": null
    }
  },
  {
    "name": "Lihue Airport",
    "city": "Lihue",
    "iata": "LIH",
    "latitude": "21.978205",
    "longitude": "0.000000",
    "country": {
      "name": "United States",
      "iso": "US"
    },
    "state": {
      "name": null
    }
  },
  {
    "name": "Morgantown Municipal Airport ",
    "city": "Morgantown",
    "iata": "MGW",
    "latitude": "39.645296",
    "longitude": "-79.920321",
    "country": {
      "name": "United States",
      "iso": "US"
    },
    "state": {
      "name": "West Virginia",
      "abbr": "WV"
    }
  },
  {
    "name": "Manhattan Regional Airport",
    "city": "Manhattan",
    "iata": "MHK",
    "latitude": "39.137122",
    "longitude": "-96.669927",
    "country": {
      "name": "United States",
      "iso": "US"
    },
    "state": {
      "name": "Kansas",
      "abbr": "KS"
    }
  },
  {
    "name": "Merced Regional Airport",
    "city": "Merced",
    "iata": "MCE",
    "latitude": "37.286059",
    "longitude": "-120.514459",
    "country": {
      "name": "United States",
      "iso": "US"
    },
    "state": {
      "name": "California",
      "abbr": "CA"
    }
  },
  {
    "name": "Lanai Airport",
    "city": "Lanai City",
    "iata": "LNY",
    "latitude": "20.790085",
    "longitude": "0.000000",
    "country": {
      "name": "United States",
      "iso": "US"
    },
    "state": {
      "name": null
    }
  },
  {
    "name": "Kahului Airport - Maui",
    "city": "Kahului",
    "iata": "OGG",
    "latitude": "20.896792",
    "longitude": "-156.432938",
    "country": {
      "name": "United States",
      "iso": "US"
    },
    "state": {
      "name": "Hawaii",
      "abbr": "HI"
    }
  },
  {
    "name": "Harbor Springs Airport",
    "city": "Harbor Springs",
    "iata": "MGN",
    "latitude": "9.288056",
    "longitude": "0.000000",
    "country": {
      "name": "United States",
      "iso": "US"
    },
    "state": {
      "name": null
    }
  },
  {
    "name": "Southern Illinois Airport",
    "city": "Carbondale",
    "iata": "MDH",
    "latitude": "37.775966",
    "longitude": "-89.253108",
    "country": {
      "name": "United States",
      "iso": "US"
    },
    "state": {
      "name": "Illinois",
      "abbr": "IL"
    }
  },
  {
    "name": "Wake Island Airfield",
    "city": "Wake Island",
    "iata": "AWK",
    "latitude": "19.283333",
    "longitude": "166.633330",
    "country": {
      "name": "United States",
      "iso": "US"
    },
    "state": {
      "name": null
    }
  },
  {
    "name": "Point Lay LRRS Airport",
    "city": "Point Lay",
    "iata": "PIZ",
    "latitude": "69.750000",
    "longitude": "0.000000",
    "country": {
      "name": "United States",
      "iso": "US"
    },
    "state": {
      "name": null
    }
  },
  {
    "name": "Henderson Field",
    "city": "Sand Island",
    "iata": "MDY",
    "latitude": "28.200000",
    "longitude": "0.000000",
    "country": {
      "name": "United States",
      "iso": "US"
    },
    "state": {
      "name": null
    }
  },
  {
    "name": "Johnston Atoll Airport",
    "city": "Johnston Atoll",
    "iata": "JON",
    "latitude": "16.733334",
    "longitude": "0.000000",
    "country": {
      "name": "United States",
      "iso": "US"
    },
    "state": {
      "name": null
    }
  },
  {
    "name": "Upolu Airport",
    "city": "Hawi",
    "iata": "UPP",
    "latitude": "20.268057",
    "longitude": "0.000000",
    "country": {
      "name": "United States",
      "iso": "US"
    },
    "state": {
      "name": null
    }
  },
  {
    "name": "Meridian Regional Airport",
    "city": "Meridian",
    "iata": "MEI",
    "latitude": "32.330115",
    "longitude": "-88.751805",
    "country": {
      "name": "United States",
      "iso": "US"
    },
    "state": {
      "name": "Mississippi",
      "abbr": "MS"
    }
  },
  {
    "name": "Delaware County Regional   Airport ",
    "city": "Muncie",
    "iata": "MIE",
    "latitude": "40.242472",
    "longitude": "-85.395750",
    "country": {
      "name": "United States",
      "iso": "US"
    },
    "state": {
      "name": "Indiana",
      "abbr": "IN"
    }
  },
  {
    "name": "Charles B. Wheeler Downtown Airport",
    "city": "Kansas City",
    "iata": "MKC",
    "latitude": "39.123287",
    "longitude": "-94.592364",
    "country": {
      "name": "United States",
      "iso": "US"
    },
    "state": {
      "name": "Missouri",
      "abbr": "MO"
    }
  },
  {
    "name": "Oakley Municipal Airport",
    "city": "Oakley",
    "iata": "OEL",
    "latitude": "52.983334",
    "longitude": "36.100000",
    "country": {
      "name": "United States",
      "iso": "US"
    },
    "state": {
      "name": null
    }
  },
  {
    "name": "Sheldon Municipal Airport",
    "city": "Sheldon",
    "iata": "SHL",
    "latitude": "25.566668",
    "longitude": "91.883330",
    "country": {
      "name": "United States",
      "iso": "US"
    },
    "state": {
      "name": null
    }
  },
  {
    "name": "Noatak Airport",
    "city": "Noatak",
    "iata": "WTK",
    "latitude": "67.563060",
    "longitude": "0.000000",
    "country": {
      "name": "United States",
      "iso": "US"
    },
    "state": {
      "name": null
    }
  },
  {
    "name": "Morristown Municipal Airport",
    "city": "Morristown",
    "iata": "MMU",
    "latitude": "40.796656",
    "longitude": "-74.421348",
    "country": {
      "name": "United States",
      "iso": "US"
    },
    "state": {
      "name": "New Jersey",
      "abbr": "NJ"
    }
  },
  {
    "name": "Lewiston-Nez Perce County Airport",
    "city": "Lewiston",
    "iata": "LWS",
    "latitude": "46.375869",
    "longitude": "-117.016045",
    "country": {
      "name": "United States",
      "iso": "US"
    },
    "state": {
      "name": "Idaho",
      "abbr": "ID"
    }
  },
  {
    "name": "Wainwright Airport ",
    "city": "Fort Wainwright",
    "iata": "AIN",
    "latitude": "70.633330",
    "longitude": "0.000000",
    "country": {
      "name": "United States",
      "iso": "US"
    },
    "state": {
      "name": null
    }
  },
  {
    "name": "Wrangell Airport",
    "city": "Wrangell",
    "iata": "WRG",
    "latitude": "56.484444",
    "longitude": "0.000000",
    "country": {
      "name": "United States",
      "iso": "US"
    },
    "state": {
      "name": null
    }
  },
  {
    "name": "Modesto City-County Airport ",
    "city": "Modesto",
    "iata": "MOD",
    "latitude": "37.626995",
    "longitude": "-120.956039",
    "country": {
      "name": "United States",
      "iso": "US"
    },
    "state": {
      "name": "California",
      "abbr": "CA"
    }
  },
  {
    "name": "Laurinburg-Maxton Airport",
    "city": "Maxton",
    "iata": "MEB",
    "latitude": "0.000000",
    "longitude": "144.897500",
    "country": {
      "name": "United States",
      "iso": "US"
    },
    "state": {
      "name": null
    }
  },
  {
    "name": "Monterey Regional Airport",
    "city": "Monterey",
    "iata": "MRY",
    "latitude": "36.588269",
    "longitude": "-121.849109",
    "country": {
      "name": "United States",
      "iso": "US"
    },
    "state": {
      "name": "California",
      "abbr": "CA"
    }
  },
  {
    "name": "Miles City Airport ",
    "city": "Miles City",
    "iata": "MLS",
    "latitude": "46.428390",
    "longitude": "-105.883702",
    "country": {
      "name": "United States",
      "iso": "US"
    },
    "state": {
      "name": "Montana",
      "abbr": "MT"
    }
  },
  {
    "name": "Taos Regional Airport",
    "city": "Taos",
    "iata": "SKX",
    "latitude": "36.458167",
    "longitude": "-105.672417",
    "country": {
      "name": "United States",
      "iso": "US"
    },
    "state": {
      "name": "New Mexico",
      "abbr": "NM"
    }
  },
  {
    "name": "Kapalua Airport - Maui",
    "city": "Lahaina",
    "iata": "JHM",
    "latitude": "20.962194",
    "longitude": "0.000000",
    "country": {
      "name": "United States",
      "iso": "US"
    },
    "state": {
      "name": null
    }
  },
  {
    "name": "Hana Airport",
    "city": "Hana",
    "iata": "HNM",
    "latitude": "20.795834",
    "longitude": "0.000000",
    "country": {
      "name": "United States",
      "iso": "US"
    },
    "state": {
      "name": null
    }
  },
  {
    "name": "Lynchburg Regional Airport ",
    "city": "Lynchburg",
    "iata": "LYH",
    "latitude": "37.326886",
    "longitude": "-79.200853",
    "country": {
      "name": "United States",
      "iso": "US"
    },
    "state": {
      "name": "Virginia",
      "abbr": "VA"
    }
  },
  {
    "name": "Wheeler Army Airfield",
    "city": "Wahiawa",
    "iata": "HHI",
    "latitude": "21.500000",
    "longitude": "0.000000",
    "country": {
      "name": "United States",
      "iso": "US"
    },
    "state": {
      "name": null
    }
  },
  {
    "name": "McKellar-Sipes Regional Airport",
    "city": "Jackson",
    "iata": "MKL",
    "latitude": "35.602437",
    "longitude": "-88.921577",
    "country": {
      "name": "United States",
      "iso": "US"
    },
    "state": {
      "name": "Tennessee",
      "abbr": "TN"
    }
  },
  {
    "name": "Dillingham Airfield",
    "city": "Mokuleia",
    "iata": "HDH",
    "latitude": "21.466667",
    "longitude": "0.000000",
    "country": {
      "name": "United States",
      "iso": "US"
    },
    "state": {
      "name": null
    }
  },
  {
    "name": "Barking Sands PMRF",
    "city": "Kekaha",
    "iata": "BKH",
    "latitude": "21.966667",
    "longitude": "0.000000",
    "country": {
      "name": "United States",
      "iso": "US"
    },
    "state": {
      "name": null
    }
  },
  {
    "name": "Lewistown Municipal Airport",
    "city": "Lewistown",
    "iata": "LWT",
    "latitude": "47.047413",
    "longitude": "-109.460175",
    "country": {
      "name": "United States",
      "iso": "US"
    },
    "state": {
      "name": "Montana",
      "abbr": "MT"
    }
  },
  {
    "name": "Fort Yukon Airport",
    "city": "Fort Yukon",
    "iata": "FYU",
    "latitude": "66.569810",
    "longitude": "0.000000",
    "country": {
      "name": "United States",
      "iso": "US"
    },
    "state": {
      "name": null
    }
  },
  {
    "name": "Cincinnati Municipal Lunken Airport",
    "city": "Cincinnati",
    "iata": "LUK",
    "latitude": "39.103333",
    "longitude": "-84.418892",
    "country": {
      "name": "United States",
      "iso": "US"
    },
    "state": {
      "name": "Ohio",
      "abbr": "OH"
    }
  },
  {
    "name": "DeKalb-Peachtree Airport",
    "city": "Atlanta",
    "iata": "PDK",
    "latitude": "33.876177",
    "longitude": "-84.307654",
    "country": {
      "name": "United States",
      "iso": "US"
    },
    "state": {
      "name": "Georgia",
      "abbr": "GA"
    }
  },
  {
    "name": "Rutland State Airport",
    "city": "Rutland",
    "iata": "RUT",
    "latitude": "43.528050",
    "longitude": "-72.950475",
    "country": {
      "name": "United States",
      "iso": "US"
    },
    "state": {
      "name": "Vermont",
      "abbr": "VT"
    }
  },
  {
    "name": "Bettles Airport",
    "city": "Bettles",
    "iata": "BTT",
    "latitude": "66.919292",
    "longitude": "-151.519066",
    "country": {
      "name": "United States",
      "iso": "US"
    },
    "state": {
      "name": "Alaska",
      "abbr": "AK"
    }
  },
  {
    "name": "Wiley Post-Will Rogers Memorial Airport",
    "city": "Barrow",
    "iata": "BRW",
    "latitude": "71.285278",
    "longitude": "-156.765833",
    "country": {
      "name": "United States",
      "iso": "US"
    },
    "state": {
      "name": "Alaska",
      "abbr": "AK"
    }
  },
  {
    "name": "Buckland Airport ",
    "city": "Buckland",
    "iata": "BKC",
    "latitude": "65.981404",
    "longitude": "-161.149171",
    "country": {
      "name": "United States",
      "iso": "US"
    },
    "state": {
      "name": "Alaska",
      "abbr": "AK"
    }
  },
  {
    "name": "Allen Army Airfield ",
    "city": "Fort Greely",
    "iata": "BIG",
    "latitude": "63.994720",
    "longitude": "-145.720276",
    "country": {
      "name": "United States",
      "iso": "US"
    },
    "state": {
      "name": "Alaska",
      "abbr": "AK"
    }
  },
  {
    "name": "Bethel Airport",
    "city": "Bethel",
    "iata": "BET",
    "latitude": "60.779722",
    "longitude": "-161.837778",
    "country": {
      "name": "United States",
      "iso": "US"
    },
    "state": {
      "name": "Alaska",
      "abbr": "AK"
    }
  },
  {
    "name": "Barter Island LRRS Airport",
    "city": "Barter Island",
    "iata": "BTI",
    "latitude": "70.133889",
    "longitude": "-143.581667",
    "country": {
      "name": "United States",
      "iso": "US"
    },
    "state": {
      "name": "Alaska",
      "abbr": "AK"
    }
  },
  {
    "name": "Palmer Municipal Airport",
    "city": "Palmer",
    "iata": "PAQ",
    "latitude": "61.601605",
    "longitude": "-149.095109",
    "country": {
      "name": "United States",
      "iso": "US"
    },
    "state": {
      "name": "Alaska",
      "abbr": "AK"
    }
  },
  {
    "name": "Sheridan County Airport",
    "city": "Sheridan",
    "iata": "SHR",
    "latitude": "44.769755",
    "longitude": "-106.991906",
    "country": {
      "name": "United States",
      "iso": "US"
    },
    "state": {
      "name": "Wyoming",
      "abbr": "WY"
    }
  },
  {
    "name": "Grand Glaize-Osage Beach Airport ",
    "city": "Osage Beach",
    "iata": "OSB",
    "latitude": "38.113907",
    "longitude": "-92.682857",
    "country": {
      "name": "United States",
      "iso": "US"
    },
    "state": {
      "name": "Missouri",
      "abbr": "MO"
    }
  },
  {
    "name": "Picayune Municipal Airport",
    "city": "Picayune",
    "iata": "MJD",
    "latitude": "30.490031",
    "longitude": "-89.655755",
    "country": {
      "name": "United States",
      "iso": "US"
    },
    "state": {
      "name": "Mississippi",
      "abbr": "MS"
    }
  },
  {
    "name": "San Angelo Regional Airport ",
    "city": "San Angelo",
    "iata": "SJT",
    "latitude": "31.356845",
    "longitude": "-100.503244",
    "country": {
      "name": "United States",
      "iso": "US"
    },
    "state": {
      "name": "Texas",
      "abbr": "TX"
    }
  },
  {
    "name": "Adirondack Regional Airport",
    "city": "Saranac Lake",
    "iata": "SLK",
    "latitude": "44.387027",
    "longitude": "-74.205457",
    "country": {
      "name": "United States",
      "iso": "US"
    },
    "state": {
      "name": "New York",
      "abbr": "NY"
    }
  },
  {
    "name": "Salisbury–Ocean City–Wicomico Regional Airport",
    "city": "Salisbury",
    "iata": "SBY",
    "latitude": "38.340278",
    "longitude": "-75.510278",
    "country": {
      "name": "United States",
      "iso": "US"
    },
    "state": {
      "name": "Maryland",
      "abbr": "MD"
    }
  },
  {
    "name": "San Luis Obispo County Regional Airport",
    "city": "San Luis Obispo",
    "iata": "SBP",
    "latitude": "35.237553",
    "longitude": "-120.640293",
    "country": {
      "name": "United States",
      "iso": "US"
    },
    "state": {
      "name": "California",
      "abbr": "CA"
    }
  },
  {
    "name": "Cold Bay Airport",
    "city": "Cold Bay",
    "iata": "CDB",
    "latitude": "55.203921",
    "longitude": "-162.724445",
    "country": {
      "name": "United States",
      "iso": "US"
    },
    "state": {
      "name": "Alaska",
      "abbr": "AK"
    }
  },
  {
    "name": "Rocky Mount–Wilson Regional Airport",
    "city": "Rocky Mount",
    "iata": "RWI",
    "latitude": "35.855032",
    "longitude": "-77.893326",
    "country": {
      "name": "United States",
      "iso": "US"
    },
    "state": {
      "name": "North Carolina",
      "abbr": "NC"
    }
  },
  {
    "name": "Cape Newenham LRRS Airport",
    "city": "Cape Newenham",
    "iata": "EHM",
    "latitude": "58.646427",
    "longitude": "-162.062775",
    "country": {
      "name": "United States",
      "iso": "US"
    },
    "state": {
      "name": "Alaska",
      "abbr": "AK"
    }
  },
  {
    "name": "Elmendorf Air Force Base",
    "city": "Anchorage",
    "iata": "EDF",
    "latitude": "61.253635",
    "longitude": "-149.811253",
    "country": {
      "name": "United States",
      "iso": "US"
    },
    "state": {
      "name": "Alaska",
      "abbr": "AK"
    }
  },
  {
    "name": "Unalaska Airport",
    "city": "Unalaska",
    "iata": "DUT",
    "latitude": "53.898930",
    "longitude": "-166.544680",
    "country": {
      "name": "United States",
      "iso": "US"
    },
    "state": {
      "name": "Alaska",
      "abbr": "AK"
    }
  },
  {
    "name": "Kodiak Airport",
    "city": "Kodiak",
    "iata": "ADQ",
    "latitude": "57.749966",
    "longitude": "-152.493851",
    "country": {
      "name": "United States",
      "iso": "US"
    },
    "state": {
      "name": "Alaska",
      "abbr": "AK"
    }
  },
  {
    "name": "Dillingham Airport",
    "city": "Dillingham",
    "iata": "DLG",
    "latitude": "59.045420",
    "longitude": "-158.503901",
    "country": {
      "name": "United States",
      "iso": "US"
    },
    "state": {
      "name": "Alaska",
      "abbr": "AK"
    }
  },
  {
    "name": "Adak Airport",
    "city": "Adak Island",
    "iata": "ADK",
    "latitude": "51.761587",
    "longitude": "-176.621747",
    "country": {
      "name": "United States",
      "iso": "US"
    },
    "state": {
      "name": "Alaska",
      "abbr": "AK"
    }
  },
  {
    "name": "Santa Barbara Municipal Airport",
    "city": "Santa Barbara",
    "iata": "SBA",
    "latitude": "34.427194",
    "longitude": "-119.839883",
    "country": {
      "name": "United States",
      "iso": "US"
    },
    "state": {
      "name": "California",
      "abbr": "CA"
    }
  },
  {
    "name": "Deering Airport ",
    "city": "Deering",
    "iata": "DRG",
    "latitude": "66.076557",
    "longitude": "-162.723061",
    "country": {
      "name": "United States",
      "iso": "US"
    },
    "state": {
      "name": "Alaska",
      "abbr": "AK"
    }
  },
  {
    "name": "Cape Romanzof LRRS Airport",
    "city": "Cape Romanzof",
    "iata": "CZF",
    "latitude": "61.781810",
    "longitude": "-166.037231",
    "country": {
      "name": "United States",
      "iso": "US"
    },
    "state": {
      "name": "Alaska",
      "abbr": "AK"
    }
  },
  {
    "name": "Merle K. (Mudhole) Smith Airport",
    "city": "Cordova",
    "iata": "CDV",
    "latitude": "60.493435",
    "longitude": "-145.475729",
    "country": {
      "name": "United States",
      "iso": "US"
    },
    "state": {
      "name": "Alaska",
      "abbr": "AK"
    }
  },
  {
    "name": "Clear Sky Lodge Airport",
    "city": "Clear",
    "iata": "CLF",
    "latitude": "64.256576",
    "longitude": "-149.186709",
    "country": {
      "name": "United States",
      "iso": "US"
    },
    "state": {
      "name": "Alaska",
      "abbr": "AK"
    }
  },
  {
    "name": "Salina Municipal Airport",
    "city": "Salina",
    "iata": "SLN",
    "latitude": "38.778673",
    "longitude": "-97.639528",
    "country": {
      "name": "United States",
      "iso": "US"
    },
    "state": {
      "name": "Kansas",
      "abbr": "KS"
    }
  },
  {
    "name": "McGuire Air Force Base",
    "city": "Wrightstown",
    "iata": "WRI",
    "latitude": "40.035178",
    "longitude": "-74.584406",
    "country": {
      "name": "United States",
      "iso": "US"
    },
    "state": {
      "name": "New Jersey",
      "abbr": "NJ"
    }
  },
  {
    "name": "Draughon-Miller Central Texas Regional Airport",
    "city": "Temple",
    "iata": "TPL",
    "latitude": "31.152401",
    "longitude": "-97.410461",
    "country": {
      "name": "United States",
      "iso": "US"
    },
    "state": {
      "name": "Texas",
      "abbr": "TX"
    }
  },
  {
    "name": "Trenton-Mercer Airport",
    "city": "Trenton",
    "iata": "TTN",
    "latitude": "40.277031",
    "longitude": "-74.818049",
    "country": {
      "name": "United States",
      "iso": "US"
    },
    "state": {
      "name": "New Jersey",
      "abbr": "NJ"
    }
  },
  {
    "name": "Tupelo Regional Airport",
    "city": "Tupelo",
    "iata": "TUP",
    "latitude": "34.266898",
    "longitude": "-88.769120",
    "country": {
      "name": "United States",
      "iso": "US"
    },
    "state": {
      "name": "Mississippi",
      "abbr": "MS"
    }
  },
  {
    "name": "Vero Beach Municipal Airport ",
    "city": "Vero Beach",
    "iata": "VRB",
    "latitude": "27.655556",
    "longitude": "-80.417944",
    "country": {
      "name": "United States",
      "iso": "US"
    },
    "state": {
      "name": "Florida",
      "abbr": "FL"
    }
  },
  {
    "name": "Cherry Capital Airport",
    "city": "Traverse City",
    "iata": "TVC",
    "latitude": "44.736966",
    "longitude": "-85.579701",
    "country": {
      "name": "United States",
      "iso": "US"
    },
    "state": {
      "name": "Michigan",
      "abbr": "MI"
    }
  },
  {
    "name": "Lake Tahoe Airport",
    "city": "South Lake Tahoe",
    "iata": "TVL",
    "latitude": "38.894020",
    "longitude": "-119.996629",
    "country": {
      "name": "United States",
      "iso": "US"
    },
    "state": {
      "name": "California",
      "abbr": "CA"
    }
  },
  {
    "name": "Magic Valley Regional Airport",
    "city": "Twin Falls",
    "iata": "TWF",
    "latitude": "42.481968",
    "longitude": "-114.486048",
    "country": {
      "name": "United States",
      "iso": "US"
    },
    "state": {
      "name": "Idaho",
      "abbr": "ID"
    }
  },
  {
    "name": "Texarkana Regional Airport ",
    "city": "Texarkana",
    "iata": "TXK",
    "latitude": "33.456311",
    "longitude": "-93.991663",
    "country": {
      "name": "United States",
      "iso": "US"
    },
    "state": {
      "name": "Arkansas",
      "abbr": "AR"
    }
  },
  {
    "name": "Tyler Pounds Regional Airport",
    "city": "Tyler",
    "iata": "TYR",
    "latitude": "32.351126",
    "longitude": "-95.409629",
    "country": {
      "name": "United States",
      "iso": "US"
    },
    "state": {
      "name": "Texas",
      "abbr": "TX"
    }
  },
  {
    "name": "Valdosta Regional Airport",
    "city": "Valdosta",
    "iata": "VLD",
    "latitude": "30.785034",
    "longitude": "-83.276510",
    "country": {
      "name": "United States",
      "iso": "US"
    },
    "state": {
      "name": "Georgia",
      "abbr": "GA"
    }
  },
  {
    "name": "Quincy Regional Airport ",
    "city": "Quincy",
    "iata": "UIN",
    "latitude": "39.941247",
    "longitude": "-91.194178",
    "country": {
      "name": "United States",
      "iso": "US"
    },
    "state": {
      "name": "Illinois",
      "abbr": "IL"
    }
  },
  {
    "name": "Worland Municipal Airport",
    "city": "Worland",
    "iata": "WRL",
    "latitude": "43.972844",
    "longitude": "-107.951766",
    "country": {
      "name": "United States",
      "iso": "US"
    },
    "state": {
      "name": "Wyoming",
      "abbr": "WY"
    }
  },
  {
    "name": "Tuscaloosa Regional Airport",
    "city": "Tuscaloosa",
    "iata": "TCL",
    "latitude": "33.218612",
    "longitude": "-87.611210",
    "country": {
      "name": "United States",
      "iso": "US"
    },
    "state": {
      "name": "Alabama",
      "abbr": "AL"
    }
  },
  {
    "name": "Waynesville-St. Robert Regional Airport ",
    "city": "Fort Leonard Wood",
    "iata": "TBN",
    "latitude": "37.741856",
    "longitude": "-92.140445",
    "country": {
      "name": "United States",
      "iso": "US"
    },
    "state": {
      "name": "Missouri",
      "abbr": "MO"
    }
  },
  {
    "name": "Santa Maria Public Airport ",
    "city": "Santa Maria",
    "iata": "SMX",
    "latitude": "34.898955",
    "longitude": "-120.447771",
    "country": {
      "name": "United States",
      "iso": "US"
    },
    "state": {
      "name": "California",
      "abbr": "CA"
    }
  },
  {
    "name": "Victoria Regional Airport",
    "city": "Victoria",
    "iata": "VCT",
    "latitude": "28.852929",
    "longitude": "-96.921606",
    "country": {
      "name": "United States",
      "iso": "US"
    },
    "state": {
      "name": "Texas",
      "abbr": "TX"
    }
  },
  {
    "name": "St. Cloud Regional Airport",
    "city": "St. Cloud",
    "iata": "STC",
    "latitude": "45.546275",
    "longitude": "-94.065942",
    "country": {
      "name": "United States",
      "iso": "US"
    },
    "state": {
      "name": "Minnesota",
      "abbr": "MN"
    }
  },
  {
    "name": "Mustang Beach Airport",
    "city": "Port Aransas",
    "iata": "RAS",
    "latitude": "27.811230",
    "longitude": "-97.088234",
    "country": {
      "name": "United States",
      "iso": "US"
    },
    "state": {
      "name": "Texas",
      "abbr": "TX"
    }
  },
  {
    "name": "St. Paul Downtown Airport ",
    "city": "St. Paul",
    "iata": "STP",
    "latitude": "44.933469",
    "longitude": "-93.060124",
    "country": {
      "name": "United States",
      "iso": "US"
    },
    "state": {
      "name": "Minnesota",
      "abbr": "MN"
    }
  },
  {
    "name": "Bolton Field",
    "city": "Columbus",
    "iata": "TZR",
    "latitude": "39.904573",
    "longitude": "-83.135938",
    "country": {
      "name": "United States",
      "iso": "US"
    },
    "state": {
      "name": "Ohio",
      "abbr": "OH"
    }
  },
  {
    "name": "Ryan Airfield",
    "city": "Tucson",
    "iata": "RYN",
    "latitude": "42.065987",
    "longitude": "-87.692485",
    "country": {
      "name": "United States",
      "iso": "US"
    },
    "state": {
      "name": "Illinois",
      "abbr": "IL"
    }
  },
  {
    "name": "Friedman Memorial Airport",
    "city": "Hailey",
    "iata": "SUN",
    "latitude": "43.506916",
    "longitude": "-114.299335",
    "country": {
      "name": "United States",
      "iso": "US"
    },
    "state": {
      "name": "Idaho",
      "abbr": "ID"
    }
  },